$DIVISEK,MPL-RAIN-GPS,4c0c30535b9db4f980f154b70911e5b2a320fb2,1290c00806a20091302fa000a000004d
$STROKE,0,11,0x1C,0x22,0xC2,0x04,0x00,0x00,0x00,0x3F,0x01,4,0,63
$STROKE,1,15,0x1C,0x22,0xC2,0x01,0x00,0x00,0x00,0x3F,0x01,1,0,63
$MPL,0,21,0,98777.75,24.69
$GPGSV,4,2,15,06,51,289,50,07,15,181,24,09,59,238,34,10,,,28*42
$GPGSV,4,3,15,16,01,094,,17,11,238,,19,18,251,22,22,26,112,19*77
$GPGSV,4,4,15,23,77,070,29,26,09,068,30,31,07,032,36*41
$GPGLL,,,,,200419.00,V,N*44
$GPRMC,200420.00,V,,,,,,,100719,,,N*77
$GPVTG,,,,,,,,,N*30
$GPGGA,200420.00,,,,,0,00,99.99,,,,,,*62
$GPGSA,A,1,,,,,,,,,,,,,99.99,99.99,99.99*30
$GPGSV,4,1,14,01,06,160,,02,15,319,44,03,46,105,33,04,,,28*4F
$GPGSV,4,2,14,06,51,289,50,07,15,181,24,09,59,238,34,16,01,094,*73
$GPGSV,4,3,14,17,11,238,,19,18,251,23,22,26,112,19,23,77,070,30*79
$TIME,23
$STROKE,2,27,0x1C,0x22,0xC2,0x04,0x00,0x00,0x00,0x3F,0x01,4,0,63
$MPL,1,31,0,98784.50,24.38
$GPGSV,4,4,14,26,09,068,27,31,07,032,34*79
$GPGLL,,,,,200429.00,V,N*47
$GPRMC,200429.50,V,,,,,,,100719,,,N*7B
$GPVTG,,,,,,,,,N*30
$GPGGA,200429.50,,,,,0,03,9.64,,,,,,*56
$GPGSA,A,1,17,06,19,,,,,,,,,,9.69,9.64,1.00*04
$GPGSV,4,1,14,01,06,160,,02,15,319,43,03,46,105,31,04,,,26*44
$GPGSV,4,2,14,06,51,289,50,07,15,181,24,09,59,238,33,16,01,094,*74
$GPGSV,4,3,14,17,11,238,24,19,18,251,25,22,26,112,18,23,77,070,30*78
$GPGSV,4,4,14,26,09,068,27,31,07,032,34*79
$GPGLL,,,,,200429.50,V,N*42
$TIME,33
$STROKE,3,34,0x1C,0x22,0xC2,0x04,0x44,0xF6,0x07,0x3F,0x01,4,521796,63
$STROKE,4,40,0x1C,0x22,0xC2,0x04,0x24,0x00,0x08,0x3F,0x01,4,524324,63
$MPL,2,41,0,98801.25,24.13
$GPRMC,200440.00,A,5007.00723,N,01427.63712,E,0.288,,100719,,,A*7B
$GPVTG,,T,,M,0.288,N,0.534,K,A*23
$GPGGA,200440.00,5007.00723,N,01427.63712,E,1,09,1.02,282.2,M,44.3,M,,*58
$GPGSA,A,3,31,02,23,26,17,03,06,19,09,,,,1.51,1.02,1.11*02
$GPGSV,4,1,14,01,06,160,,02,16,319,43,03,45,105,31,04,38,237,29*76
$GPGSV,4,2,14,06,51,289,50,07,15,181,20,09,60,239,33,16,01,094,*7B
$GPGSV,4,3,14,17,11,238,19,19,18,251,27,22,26,112,15,23,77,070,31*78
$GPGSV,4,4,14,26,09,068,22,31,07,032,35*7D
$GPGLL,5007.00723,N,01427.63712,E,200440.00,A,A*6E
$GPRMC,200441.00,A,5007.00722,N,01427.63713,E,0.241,,100719,,,A*7F
$GPVTG,,T,,M,0.241,N,0.447,K,A*23
$TIME,44
$STROKE,5,45,0x1C,0x22,0xC2,0x08,0xE0,0x95,0x01,0x08,0x01,8,103904,8
$MPL,3,52,0,98796.75,23.69
$GPRMC,200450.00,A,5007.00737,N,01427.63716,E,0.371,,100719,,,A*7C
$GPVTG,,T,,M,0.371,N,0.686,K,A*2E
$GPGGA,200450.00,5007.00737,N,01427.63716,E,1,09,1.02,282.1,M,44.3,M,,*5B
$GPGSA,A,3,31,02,23,26,17,03,06,19,09,,,,1.51,1.02,1.11*02
$GPGSV,4,1,14,01,06,160,,02,16,319,42,03,45,105,26,04,38,237,34*7D
$GPGSV,4,2,14,06,51,289,50,07,15,181,17,09,60,239,34,16,01,094,*78
$GPGSV,4,3,14,17,11,238,21,19,18,251,27,22,26,112,21,23,77,070,34*71
$GPGSV,4,4,14,26,09,068,23,31,07,032,35*7C
$GPGLL,5007.00737,N,01427.63716,E,200450.00,A,A*6E
$GPRMC,200451.00,A,5007.00720,N,01427.63713,E,0.376,,100719,,,A*79
$GPVTG,,T,,M,0.376,N,0.696,K,A*28
$TIME,54
$STROKE,6,55,0x1C,0x22,0xC2,0x04,0xCC,0xE0,0x00,0x08,0x01,4,57548,8
$STROKE,7,55,0x1C,0x22,0xC2,0x08,0x13,0xF4,0x00,0x08,0x01,8,62483,8
$STROKE,8,59,0x1C,0x22,0xC2,0x04,0x00,0x00,0x00,0x08,0x01,4,0,8
$MPL,4,62,0,98794.50,23.06
$GPRMC,200500.00,A,5007.00655,N,01427.63699,E,0.329,,100719,,,A*76
$GPVTG,,T,,M,0.329,N,0.609,K,A*24
$GPGGA,200500.00,5007.00655,N,01427.63699,E,1,09,1.02,280.3,M,44.3,M,,*5C
$GPGSA,A,3,31,02,23,26,17,03,06,19,09,,,,1.51,1.02,1.11*02
$GPGSV,4,1,14,01,06,160,,02,16,319,43,03,45,105,21,04,38,237,36*79
$GPGSV,4,2,14,06,51,289,50,07,15,181,10,09,60,239,33,16,01,094,*78
$GPGSV,4,3,14,17,11,238,22,19,18,251,27,22,26,112,27,23,77,070,33*73
$GPGSV,4,4,14,26,09,068,26,31,07,032,36*7A
$GPGLL,5007.00655,N,01427.63699,E,200500.00,A,A*69
$GPRMC,200501.00,A,5007.00657,N,01427.63689,E,0.285,,100719,,,A*73
$GPVTG,,T,,M,0.285,N,0.528,K,A*23
$TIME,64
$STROKE,9,65,0x1C,0x22,0xC2,0x04,0x6A,0xF6,0x07,0x08,0x01,4,521834,8
$MPL,5,72,0,98792.00,22.63
$GPRMC,200510.00,A,5007.00615,N,01427.63694,E,0.125,,100719,,,A*70
$GPVTG,,T,,M,0.125,N,0.232,K,A*26
$GPGGA,200510.00,5007.00615,N,01427.63694,E,1,09,1.16,279.8,M,44.3,M,,*5C
$GPGSA,A,3,31,02,23,26,17,03,06,19,09,,,,1.61,1.16,1.12*07
$GPGSV,4,1,14,01,06,160,,02,16,319,44,03,45,105,13,04,38,237,36*7F
$GPGSV,4,2,14,06,51,289,50,07,15,181,12,09,60,239,32,16,01,094,*7B
$GPGSV,4,3,14,17,10,237,14,19,18,251,27,22,26,112,26,23,77,070,31*7B
$GPGSV,4,4,14,26,09,068,25,31,07,032,36*79
$GPGLL,5007.00615,N,01427.63694,E,200510.00,A,A*61
$GPRMC,200511.00,A,5007.00607,N,01427.63701,E,0.108,,100719,,,A*70
$GPVTG,,T,,M,0.108,N,0.201,K,A*29
$TIME,74
$STROKE,10,75,0x1C,0x22,0xC2,0x04,0x4F,0x02,0x08,0x08,0x01,4,524879,8
$MPL,6,82,0,98784.75,22.38
$GPGSA,A,3,31,02,23,26,03,06,19,09,,,,,1.84,1.22,1.37*0A
$GPGSV,4,1,14,01,06,160,,02,16,319,44,03,45,105,20,04,38,237,34*7D
$GPGSV,4,2,14,06,51,289,50,07,15,181,12,09,60,239,26,16,01,094,*7E
$GPGSV,4,3,14,17,10,237,,19,18,251,27,22,25,112,22,23,76,070,32*7B
$GPGSV,4,4,14,26,10,067,26,31,07,032,37*7C
$GPGLL,5007.00523,N,01427.63752,E,200520.00,A,A*6F
$GPRMC,200521.00,A,5007.00513,N,01427.63754,E,0.271,,100719,,,A*78
$GPVTG,,T,,M,0.271,N,0.502,K,A*20
$GPGGA,200521.00,5007.00513,N,01427.63754,E,1,08,1.37,279.3,M,44.3,M,,*5F
$GPGSA,A,3,31,02,23,26,03,06,19,09,,,,,1.94,1.37,1.37*0F
$GPGSV,4,1,14,01,06,160,,02,16,319,44,03,45,105,20,04,38,237,33*7A
$TIME,84
$STROKE,11,85,0x1C,0x22,0xC2,0x04,0x2A,0xE0,0x07,0x08,0x01,4,516138,8
$MPL,7,92,0,98782.50,22.06
$GPGSV,4,2,14,06,51,289,49,07,15,181,20,09,60,239,28,16,01,094,*79
$GPGSV,4,3,14,17,10,237,,19,18,251,25,22,25,112,24,23,76,070,32*7F
$GPGSV,4,4,14,26,10,067,25,31,07,032,38*70
$GPGLL,5007.00439,N,01427.63727,E,200530.00,A,A*66
$GPRMC,200531.00,A,5007.00448,N,01427.63723,E,0.366,,100719,,,A*71
$GPVTG,,T,,M,0.366,N,0.679,K,A*28
$GPGGA,200531.00,5007.00448,N,01427.63723,E,1,08,1.22,279.0,M,44.3,M,,*56
$GPGSA,A,3,31,02,23,26,03,06,19,09,,,,,1.83,1.22,1.37*0D
$GPGSV,4,1,14,01,06,160,,02,16,319,44,03,45,105,24,04,38,237,30*7D
$GPGSV,4,2,14,06,51,289,50,07,15,181,22,09,60,239,30,16,01,094,*7A
$GPGSV,4,3,14,17,10,237,,19,18,251,25,22,25,112,24,23,76,070,32*7F
$TIME,94
$STROKE,12,95,0x1C,0x22,0xC2,0x04,0xFD,0xE0,0x07,0x08,0x01,4,516349,8
$STROKE,13,98,0x1C,0x22,0xC2,0x08,0x17,0x0C,0x01,0x08,0x01,8,68631,8
$MPL,8,102,0,98794.50,21.50
$GPGSV,4,4,14,26,10,067,21,31,07,032,39*75
$GPGLL,5007.00560,N,01427.63691,E,200540.00,A,A*60
$GPRMC,200541.00,A,5007.00565,N,01427.63689,E,0.450,,100719,,,A*7B
$GPVTG,,T,,M,0.450,N,0.833,K,A*2A
$GPGGA,200541.00,5007.00565,N,01427.63689,E,1,09,1.37,281.4,M,44.3,M,,*58
$GPGSA,A,3,31,02,23,26,17,03,06,19,09,,,,1.94,1.37,1.37*09
$GPGSV,4,1,14,01,06,160,,02,16,319,43,03,45,105,18,04,38,237,30*75
$GPGSV,4,2,14,06,51,289,50,07,15,181,27,09,60,239,32,16,01,094,*7D
$GPGSV,4,3,14,17,10,237,18,19,18,251,22,22,25,112,24,23,76,070,32*71
$GPGSV,4,4,14,26,10,067,22,31,07,032,39*76
$GPGLL,5007.00565,N,01427.63689,E,200541.00,A,A*6D
$TIME,104
$STROKE,14,106,0x1C,0x22,0xC2,0x04,0x58,0xE1,0x07,0x08,0x01,4,516440,8
$STROKE,15,110,0x1C,0x22,0xC2,0x04,0x00,0x00,0x00,0x08,0x01,4,0,8
$STROKE,16,111,0x1C,0x22,0xC2,0x04,0x00,0x00,0x00,0x08,0x01,4,0,8
$MPL,9,113,0,98798.00,21.19
$GPRMC,200551.00,A,5007.00685,N,01427.63658,E,0.628,356.33,100719,,,A*68
$GPVTG,356.33,T,,M,0.628,N,1.163,K,A*34
$GPGGA,200551.00,5007.00685,N,01427.63658,E,1,08,1.43,284.7,M,44.3,M,,*5C
$GPGSA,A,3,31,02,23,26,17,06,19,09,,,,,1.89,1.43,1.24*07
$GPGSV,4,1,14,01,06,160,,02,16,319,43,03,45,105,,04,38,237,30*7C
$GPGSV,4,2,14,06,51,289,50,07,15,181,27,09,60,239,32,16,01,094,*7D
$GPGSV,4,3,14,17,10,237,14,19,18,251,24,22,25,112,24,23,76,070,31*78
$GPGSV,4,4,14,26,10,067,22,31,07,032,41*79
$GPGLL,5007.00685,N,01427.63658,E,200551.00,A,A*6D
$GPRMC,200552.00,A,5007.00699,N,01427.63654,E,0.447,,100719,,,A*7F
$GPVTG,,T,,M,0.447,N,0.828,K,A*26
$TIME,115
$STROKE,17,116,0x1C,0x22,0xC2,0x04,0xEF,0xE3,0x07,0x08,0x01,4,517103,8
$MPL,10,123,0,98801.00,20.94
$GPRMC,200601.00,A,5007.00698,N,01427.63657,E,0.048,,100719,,,A*73
$GPVTG,,T,,M,0.048,N,0.089,K,A*2E
$GPGGA,200601.00,5007.00698,N,01427.63657,E,1,09,1.05,285.6,M,44.3,M,,*5A
$GPGSA,A,3,31,02,23,26,03,06,19,09,07,,,,1.59,1.05,1.19*04
$GPGSV,4,1,14,01,06,160,,02,16,319,44,03,45,105,21,04,38,237,29*70
$GPGSV,4,2,14,06,51,289,50,07,16,181,26,09,60,239,30,16,01,094,*7D
$GPGSV,4,3,14,17,10,237,,19,18,251,27,22,25,112,,23,76,070,32*7B
$GPGSV,4,4,14,26,10,067,22,31,07,032,42*7A
$GPGLL,5007.00698,N,01427.63657,E,200601.00,A,A*68
$GPRMC,200602.00,A,5007.00655,N,01427.63657,E,0.095,,100719,,,A*71
$GPVTG,,T,,M,0.095,N,0.176,K,A*2F
$TIME,125
$STROKE,18,126,0x1C,0x22,0xC2,0x04,0x72,0xF7,0x07,0x08,0x01,4,522098,8
$STROKE,19,129,0x1C,0x22,0xC2,0x04,0x00,0x00,0x00,0x08,0x01,4,0,8
$STROKE,20,132,0x1C,0x22,0xC2,0x04,0x00,0x00,0x00,0x08,0x01,4,0,8
$MPL,11,133,0,98791.75,20.69
$GPRMC,200611.00,A,5007.00392,N,01427.63645,E,0.172,,100719,,,A*76
$GPVTG,,T,,M,0.172,N,0.318,K,A*2D
$GPGGA,200611.00,5007.00392,N,01427.63645,E,1,09,1.00,279.8,M,44.3,M,,*5F
$GPGSA,A,3,31,02,23,17,03,06,19,09,07,,,,1.49,1.00,1.11*0A
$GPGSV,4,1,14,01,05,160,,02,16,319,43,03,45,105,27,04,38,238,31*74
$GPGSV,4,2,14,06,51,288,51,07,16,181,26,09,60,239,28,16,01,094,*74
$GPGSV,4,3,14,17,10,237,25,19,18,251,28,22,25,112,,23,76,070,28*78
$GPGSV,4,4,14,26,10,067,,31,07,032,42*7A
$GPGLL,5007.00392,N,01427.63645,E,200611.00,A,A*65
$GPRMC,200612.00,A,5007.00385,N,01427.63647,E,0.119,,100719,,,A*7C
$GPVTG,,T,,M,0.119,N,0.221,K,A*2B
$TIME,135
$STROKE,21,136,0x1C,0x22,0xC2,0x04,0x49,0xEB,0x00,0x08,0x01,4,60233,8
$STROKE,22,137,0x1C,0x22,0xC2,0x08,0x56,0x46,0x05,0x01,0x01,8,345686,1
$MPL,12,143,0,98787.00,20.19
$GPGSA,A,3,31,02,23,26,17,03,06,19,09,07,,,1.41,0.88,1.09*0E
$GPGSV,4,1,14,01,05,160,,02,16,319,43,03,45,105,27,04,38,238,31*74
$GPGSV,4,2,14,06,51,288,50,07,16,181,26,09,60,239,33,16,01,093,*78
$GPGSV,4,3,14,17,10,237,25,19,18,251,31,22,25,112,,23,76,070,33*7A
$GPGSV,4,4,14,26,10,067,24,31,07,032,42*7C
$GPGLL,5007.00350,N,01427.63651,E,200621.00,A,A*6D
$GPRMC,200622.00,A,5007.00345,N,01427.63648,E,0.073,,100719,,,A*71
$GPVTG,,T,,M,0.073,N,0.136,K,A*23
$GPGGA,200622.00,5007.00345,N,01427.63648,E,1,10,0.88,278.9,M,44.3,M,,*51
$GPGSA,A,3,31,02,23,26,17,03,06,19,09,07,,,1.41,0.88,1.09*0E
$GPGSV,4,1,14,01,05,160,,02,16,319,43,03,45,105,27,04,38,238,31*74
$TIME,145
$STROKE,23,146,0x1C,0x22,0xC2,0x08,0x15,0xD4,0x07,0x01,0x01,8,513045,1
$STROKE,24,152,0x1C,0x22,0xC2,0x04,0x00,0x00,0x00,0x01,0x01,4,0,1
$MPL,13,153,0,98780.00,19.94
$GPGSV,4,2,14,06,51,288,50,07,16,181,26,09,60,239,32,16,01,093,*79
$GPGSV,4,3,14,17,10,237,20,19,17,251,32,22,25,112,,23,76,069,36*7E
$GPGSV,4,4,14,26,10,067,26,31,07,032,43*7F
$GPGLL,5007.00294,N,01427.63614,E,200631.00,A,A*64
$GPRMC,200632.00,A,5007.00284,N,01427.63609,E,0.001,,100719,,,A*7C
$GPVTG,,T,,M,0.001,N,0.001,K,A*23
$GPGGA,200632.00,5007.00284,N,01427.63609,E,1,09,0.86,277.1,M,44.3,M,,*58
$GPGSA,A,3,31,02,23,26,03,06,19,09,07,,,,1.40,0.86,1.11*0E
$GPGSV,4,1,14,01,05,160,,02,16,319,43,03,45,105,31,04,38,238,28*7B
$GPGSV,4,2,14,06,51,288,50,07,16,181,26,09,60,239,32,16,01,093,20*7B
$GPGSV,4,3,14,17,10,237,,19,17,251,32,22,25,112,,23,76,069,36*7C
$TIME,155
$STROKE,25,157,0x1C,0x22,0xC2,0x04,0x7C,0x15,0x08,0x01,0x01,4,529788,1
$STROKE,26,162,0x1C,0x22,0xC2,0x04,0x00,0x00,0x00,0x01,0x01,4,0,1
$MPL,14,163,0,98778.75,19.81
$GPGLL,5007.00192,N,01427.63559,E,200641.00,A,A*6C
$GPRMC,200642.00,A,5007.00183,N,01427.63555,E,0.035,,100719,,,A*72
$GPVTG,,T,,M,0.035,N,0.065,K,A*26
$GPGGA,200642.00,5007.00183,N,01427.63555,E,1,09,0.93,274.4,M,44.3,M,,*53
$GPGSA,A,3,31,02,23,26,03,06,19,09,07,,,,1.49,0.93,1.17*05
$GPGSV,4,1,14,01,05,160,,02,16,319,43,03,45,105,34,04,38,238,24*72
$GPGSV,4,2,14,06,51,288,50,07,16,181,25,09,60,239,30,16,01,093,*78
$GPGSV,4,3,14,17,10,237,,19,17,251,32,22,25,112,20,23,76,069,36*7E
$GPGSV,4,4,14,26,10,067,25,31,06,031,42*7F
$GPGLL,5007.00183,N,01427.63555,E,200642.00,A,A*63
$GPRMC,200643.00,A,5007.00175,N,01427.63550,E,0.033,,100719,,,A*79
$TIME,166
$STROKE,27,167,0x1C,0x22,0xC2,0x04,0x92,0xF8,0x07,0x01,0x01,4,522386,1
$STROKE,28,169,0x1C,0x22,0xC2,0x04,0x00,0x00,0x00,0x01,0x01,4,0,1
$STROKE,29,172,0x1C,0x22,0xC2,0x04,0x00,0x00,0x00,0x01,0x01,4,0,1
$STROKE,30,173,0x1C,0x22,0xC2,0x04,0x00,0x00,0x00,0x01,0x01,4,0,1
$MPL,15,174,0,98786.25,19.69
$GPRMC,200652.00,A,5007.00119,N,01427.63535,E,0.134,,100719,,,A*76
$GPVTG,,T,,M,0.134,N,0.249,K,A*2A
$GPGGA,200652.00,5007.00119,N,01427.63535,E,1,10,0.86,272.8,M,44.3,M,,*51
$GPGSA,A,3,31,02,23,26,17,03,06,19,09,07,,,1.40,0.86,1.11*08
$GPGSV,4,1,14,01,05,160,,02,16,319,43,03,45,105,35,04,38,238,23*74
$GPGSV,4,2,14,06,51,288,51,07,16,181,22,09,60,239,32,16,01,093,*7C
$GPGSV,4,3,14,17,10,237,18,19,17,251,32,22,25,112,,23,76,069,33*70
$GPGSV,4,4,14,26,10,067,28,31,06,031,42*72
$GPGLL,5007.00119,N,01427.63535,E,200652.00,A,A*67
$GPRMC,200653.00,A,5007.00115,N,01427.63533,E,0.057,,100719,,,A*79
$GPVTG,,T,,M,0.057,N,0.106,K,A*26
$TIME,176
$STROKE,31,177,0x1C,0x22,0xC2,0x04,0x64,0x5D,0x00,0x01,0x01,4,23908,1
$STROKE,32,178,0x1C,0x22,0xC2,0x04,0xBA,0xEC,0x07,0x01,0x01,4,519354,1
$STROKE,33,183,0x1C,0x22,0xC2,0x04,0x00,0x00,0x00,0x01,0x01,4,0,1
$MPL,16,184,0,98788.00,19.56
$GPRMC,200702.00,A,5007.00095,N,01427.63526,E,0.035,,100719,,,A*75
$GPVTG,,T,,M,0.035,N,0.066,K,A*25
$GPGGA,200702.00,5007.00095,N,01427.63526,E,1,09,0.86,272.4,M,44.3,M,,*56
$GPGSA,A,3,31,02,23,26,03,06,19,09,07,,,,1.40,0.86,1.11*0E
$GPGSV,4,1,14,01,05,160,,02,16,319,44,03,45,105,34,04,38,238,26*77
$GPGSV,4,2,14,06,51,288,51,07,16,181,23,09,60,239,30,16,01,093,*7F
$GPGSV,4,3,14,17,10,237,,19,17,251,33,22,25,112,22,23,76,069,32*79
$GPGSV,4,4,14,26,10,067,28,31,06,031,42*72
$GPGLL,5007.00095,N,01427.63526,E,200702.00,A,A*64
$GPRMC,200703.00,A,5007.00094,N,01427.63526,E,0.051,,100719,,,A*77
$GPVTG,,T,,M,0.051,N,0.094,K,A*2A
$TIME,186
$STROKE,34,187,0x1C,0x22,0xC2,0x04,0x66,0xFF,0x07,0x01,0x01,4,524134,1
$STROKE,35,191,0x1C,0x22,0xC2,0x04,0x00,0x00,0x00,0x01,0x01,4,0,1
$STROKE,36,191,0x1C,0x22,0xC2,0x04,0x00,0x00,0x00,0x01,0x01,4,0,1
$MPL,17,194,0,98788.50,19.50
$GPRMC,200712.00,A,5007.00089,N,01427.63565,E,0.016,,100719,,,A*7F
$GPVTG,,T,,M,0.016,N,0.029,K,A*2F
$GPGGA,200712.00,5007.00089,N,01427.63565,E,1,10,0.82,272.3,M,44.3,M,,*56
$GPGSA,A,3,31,02,23,26,17,03,06,19,09,07,,,1.31,0.82,1.02*08
$GPGSV,4,1,14,01,05,160,,02,16,319,43,03,45,105,32,04,38,238,22*72
$GPGSV,4,2,14,06,51,288,51,07,16,181,27,09,60,239,27,16,01,093,20*7F
$GPGSV,4,3,14,17,10,237,23,19,17,251,32,22,25,112,,23,76,069,27*7D
$GPGSV,4,4,14,26,10,067,30,31,06,031,41*78
$GPGLL,5007.00089,N,01427.63565,E,200712.00,A,A*6F
$GPRMC,200713.00,A,5007.00088,N,01427.63571,E,0.059,,100719,,,A*71
$GPVTG,,T,,M,0.059,N,0.109,K,A*27
$TIME,196
$STROKE,37,197,0x1C,0x22,0xC2,0x04,0x6C,0x69,0x01,0x01,0x01,4,92524,1
$STROKE,38,197,0x1C,0x22,0xC2,0x08,0x37,0x6B,0x01,0x01,0x01,8,92983,1
$STROKE,39,201,0x1C,0x22,0xC2,0x04,0x00,0x00,0x00,0x01,0x01,4,0,1
$MPL,18,204,0,98781.75,19.44
$GPVTG,,T,,M,0.273,N,0.506,K,A*26
$GPGGA,200722.00,5007.00091,N,01427.63606,E,1,10,0.82,272.0,M,44.3,M,,*59
$GPGSA,A,3,31,02,23,26,17,03,06,19,09,07,,,1.31,0.82,1.02*08
$GPGSV,4,1,14,01,05,160,20,02,17,318,44,03,44,106,30,04,39,238,22*76
$GPGSV,4,2,14,06,51,287,51,07,16,181,27,09,60,239,26,16,01,093,*73
$GPGSV,4,3,14,17,10,237,23,19,17,251,32,22,25,112,,23,76,069,27*7D
$GPGSV,4,4,14,26,10,067,32,31,06,031,41*7A
$GPGLL,5007.00091,N,01427.63606,E,200722.00,A,A*63
$GPRMC,200723.00,A,5007.00090,N,01427.63611,E,0.137,,100719,,,A*77
$GPVTG,,T,,M,0.137,N,0.254,K,A*25
$GPGGA,200723.00,5007.00090,N,01427.63611,E,1,10,0.82,272.0,M,44.3,M,,*5F
$TIME,206
$STROKE,40,207,0x1C,0x22,0xC2,0x04,0xF2,0xE4,0x07,0x01,0x01,4,517362,1
$STROKE,41,210,0x1C,0x22,0xC2,0x04,0x00,0x00,0x00,0x01,0x01,4,0,1
$MPL,19,214,0,98781.50,19.31
$GPGSV,4,1,14,01,05,160,,02,17,318,44,03,44,106,21,04,39,238,23*75
$GPGSV,4,2,14,06,51,287,51,07,16,181,28,09,61,240,33,16,02,093,*74
$GPGSV,4,3,14,17,09,237,20,19,17,251,33,22,25,112,,23,76,069,33*72
$GPGSV,4,4,14,26,10,067,30,31,06,031,39*77
$GPGLL,5007.00090,N,01427.63662,E,200732.00,A,A*61
$GPRMC,200733.00,A,5007.00093,N,01427.63665,E,0.079,,100719,,,A*7D
$GPVTG,,T,,M,0.079,N,0.147,K,A*2F
$GPGGA,200733.00,5007.00093,N,01427.63665,E,1,09,0.93,272.0,M,44.3,M,,*56
$GPGSA,A,3,31,02,23,26,03,06,19,09,07,,,,1.48,0.93,1.15*06
$GPGSV,4,1,14,01,05,160,,02,17,318,44,03,44,106,20,04,39,238,24*73
$GPGSV,4,2,14,06,51,287,51,07,16,181,28,09,61,240,33,16,02,093,*74
$TIME,216
$STROKE,42,217,0x1C,0x22,0xC2,0x08,0x9D,0xF3,0x01,0x01,0x01,8,127901,1
$MPL,20,224,0,98777.50,19.19
$GPGSV,4,3,14,17,09,237,,19,17,250,31,22,24,112,,23,75,069,35*77
$GPGSV,4,4,14,26,10,067,27,31,06,031,40*7F
$GPGLL,5007.00090,N,01427.63699,E,200742.00,A,A*62
$GPRMC,200743.00,A,5007.00090,N,01427.63700,E,0.126,,100719,,,A*70
$GPVTG,,T,,M,0.126,N,0.234,K,A*23
$GPGGA,200743.00,5007.00090,N,01427.63700,E,1,08,0.93,271.9,M,44.3,M,,*5B
$GPGSA,A,3,31,02,23,26,06,19,09,07,,,,,1.48,0.93,1.15*05
$GPGSV,4,1,14,01,05,160,,02,17,318,44,03,44,106,,04,39,238,29*7C
$GPGSV,4,2,14,06,51,287,51,07,16,181,28,09,61,240,29,16,02,093,*7F
$GPGSV,4,3,14,17,09,237,,19,17,250,31,22,24,112,,23,75,069,35*77
$GPGSV,4,4,14,26,10,067,26,31,06,031,40*7E
$TIME,226
$STROKE,43,227,0x1C,0x22,0xC2,0x04,0xFB,0xEC,0x07,0x01,0x01,4,519419,1
$STROKE,44,228,0x1C,0x22,0xC2,0x04,0x00,0x00,0x00,0x01,0x01,4,0,1
$MPL,21,234,0,98775.00,19.13
$GPGLL,5007.00084,N,01427.63700,E,200752.00,A,A*67
$GPRMC,200753.00,A,5007.00088,N,01427.63698,E,0.050,,100719,,,A*78
$GPVTG,,T,,M,0.050,N,0.093,K,A*2C
$GPGGA,200753.00,5007.00088,N,01427.63698,E,1,09,0.93,271.2,M,44.3,M,,*59
$GPGSA,A,3,31,02,23,26,03,06,19,09,07,,,,1.48,0.93,1.15*06
$GPGSV,4,1,14,01,05,160,,02,17,318,44,03,44,106,24,04,39,238,29*7A
$GPGSV,4,2,14,06,51,287,51,07,16,181,29,09,61,240,29,16,02,093,*7E
$GPGSV,4,3,14,17,09,237,,19,17,250,28,22,24,112,,23,75,069,36*7C
$GPGSV,4,4,14,26,10,067,23,31,06,031,38*74
$GPGLL,5007.00088,N,01427.63698,E,200753.00,A,A*6A
$GPRMC,200754.00,A,5007.00092,N,01427.63699,E,0.149,,100719,,,A*7C
$TIME,237
$STROKE,45,238,0x1C,0x22,0xC2,0x04,0xFD,0xF1,0x07,0x01,0x01,4,520701,1
$MPL,22,245,0,98774.50,19.00
$GPRMC,200803.00,A,5007.00103,N,01427.63651,E,0.246,,100719,,,A*70
$GPVTG,,T,,M,0.246,N,0.457,K,A*25
$GPGGA,200803.00,5007.00103,N,01427.63651,E,1,09,0.86,270.1,M,44.3,M,,*52
$GPGSA,A,3,31,02,23,26,03,06,19,09,07,,,,1.41,0.86,1.11*0F
$GPGSV,4,1,14,01,05,160,,02,17,318,44,03,44,106,28,04,39,238,25*7A
$GPGSV,4,2,14,06,51,287,51,07,16,181,28,09,61,240,31,16,02,093,*76
$GPGSV,4,3,14,17,09,237,,19,17,250,29,22,24,112,,23,75,069,36*7D
$GPGSV,4,4,14,26,10,067,26,31,06,031,38*71
$GPGLL,5007.00103,N,01427.63651,E,200803.00,A,A*67
$GPRMC,200804.00,A,5007.00107,N,01427.63649,E,0.307,,100719,,,A*7E
$GPVTG,,T,,M,0.307,N,0.568,K,A*2C
$TIME,247
$STROKE,46,248,0x1C,0x22,0xC2,0x04,0x07,0xE6,0x07,0x01,0x01,4,517639,1
$MPL,23,255,0,98773.75,18.94
$GPRMC,200813.00,A,5007.00156,N,01427.63639,E,0.141,,100719,,,A*7B
$GPVTG,,T,,M,0.141,N,0.261,K,A*22
$GPGGA,200813.00,5007.00156,N,01427.63639,E,1,08,0.96,270.5,M,44.3,M,,*59
$GPGSA,A,3,31,02,23,26,03,06,09,07,,,,,1.56,0.96,1.23*01
$GPGSV,4,1,14,01,05,160,,02,17,318,45,03,44,106,31,04,39,238,18*7D
$GPGSV,4,2,14,06,51,287,52,07,16,181,29,09,61,240,33,16,02,093,*76
$GPGSV,4,3,14,17,09,237,,19,17,250,,22,24,112,,23,75,069,35*75
$GPGSV,4,4,14,26,10,067,26,31,06,031,38*71
$GPGLL,5007.00156,N,01427.63639,E,200813.00,A,A*68
$GPRMC,200814.00,A,5007.00168,N,01427.63639,E,0.109,,100719,,,A*7D
$GPVTG,,T,,M,0.109,N,0.201,K,A*28
$TIME,257
$STROKE,47,258,0x1C,0x22,0xC2,0x04,0x17,0x22,0x08,0x01,0x01,4,533015,1
$STROKE,48,261,0x1C,0x22,0xC2,0x04,0x00,0x00,0x00,0x01,0x01,4,0,1
$MPL,24,265,0,98769.75,18.81
$GPRMC,200823.00,A,5007.00251,N,01427.63641,E,0.114,,100719,,,A*73
$GPVTG,,T,,M,0.114,N,0.211,K,A*25
$GPGGA,200823.00,5007.00251,N,01427.63641,E,1,08,0.96,272.3,M,44.3,M,,*55
$GPGSA,A,3,31,02,23,26,03,06,09,07,,,,,1.56,0.96,1.23*01
$GPGSV,4,1,14,01,05,160,,02,17,318,45,03,44,106,31,04,39,238,18*7D
$GPGSV,4,2,14,06,51,287,52,07,16,181,26,09,61,240,30,16,02,093,*7A
$GPGSV,4,3,14,17,09,237,,19,17,250,,22,24,112,,23,75,069,37*77
$GPGSV,4,4,14,26,10,067,23,31,06,031,37*7B
$GPGLL,5007.00251,N,01427.63641,E,200823.00,A,A*60
$GPRMC,200824.00,A,5007.00255,N,01427.63638,E,0.157,,100719,,,A*79
$GPVTG,,T,,M,0.157,N,0.291,K,A*2A
$TIME,267
$STROKE,49,268,0x1C,0x22,0xC2,0x04,0xB6,0xF7,0x07,0x01,0x01,4,522166,1
$STROKE,50,274,0x1C,0x22,0xC2,0x04,0x00,0x00,0x00,0x01,0x01,4,0,1
$MPL,25,275,0,98771.25,18.75
$GPGGA,200833.00,5007.00281,N,01427.63613,E,1,08,0.96,273.1,M,44.3,M,,*5D
$GPGSA,A,3,31,02,23,26,03,06,09,07,,,,,1.56,0.96,1.23*01
$GPGSV,4,1,14,01,04,160,14,02,17,318,46,03,44,106,31,04,39,238,05*76
$GPGSV,4,2,14,06,52,287,52,07,17,180,24,09,61,240,31,16,02,093,*7A
$GPGSV,4,3,14,17,09,237,,19,17,250,,22,24,112,,23,75,069,36*76
$GPGSV,4,4,14,26,10,067,28,31,06,031,36*71
$GPGLL,5007.00281,N,01427.63613,E,200833.00,A,A*6B
$GPRMC,200834.00,A,5007.00291,N,01427.63614,E,0.177,,100719,,,A*7C
$GPVTG,,T,,M,0.177,N,0.327,K,A*24
$GPGGA,200834.00,5007.00291,N,01427.63614,E,1,08,0.96,273.4,M,44.3,M,,*59
$GPGSA,A,3,31,02,23,26,03,06,09,07,,,,,1.56,0.96,1.23*01
$TIME,277
$STROKE,51,278,0x1C,0x22,0xC2,0x04,0x85,0x52,0x00,0x01,0x01,4,21125,1
$STROKE,52,279,0x1C,0x22,0xC2,0x04,0xB3,0xEC,0x07,0x01,0x01,4,519347,1
$MPL,26,285,0,98771.75,18.56
$GPGSV,4,1,14,01,04,160,,02,17,318,46,03,44,106,28,04,39,238,25*79
$GPGSV,4,2,14,06,52,287,52,07,17,180,19,09,61,240,36,16,02,092,*72
$GPGSV,4,3,14,17,09,236,,19,17,250,,22,24,112,,23,75,069,35*74
$GPGSV,4,4,14,26,10,067,31,31,06,031,35*7A
$GPGLL,5007.00428,N,01427.63638,E,200843.00,A,A*60
$GPRMC,200844.00,A,5007.00468,N,01427.63644,E,0.431,,100719,,,A*79
$GPVTG,,T,,M,0.431,N,0.797,K,A*2C
$GPGGA,200844.00,5007.00468,N,01427.63644,E,1,08,0.96,277.4,M,44.3,M,,*5F
$GPGSA,A,3,31,02,23,26,03,06,09,07,,,,,1.57,0.96,1.23*00
$GPGSV,4,1,14,01,04,160,,02,17,318,46,03,44,106,28,04,39,238,26*7A
$GPGSV,4,2,14,06,52,287,52,07,17,180,20,09,61,240,36,16,02,092,*78
$TIME,287
$STROKE,53,288,0x1C,0x22,0xC2,0x04,0x14,0x03,0x08,0x01,0x01,4,525076,1
$STROKE,54,290,0x1C,0x22,0xC2,0x04,0x00,0x00,0x00,0x01,0x01,4,0,1
$STROKE,55,292,0x1C,0x22,0xC2,0x04,0x00,0x00,0x00,0x01,0x01,4,0,1
$MPL,27,295,0,98767.25,18.44
$GPGSV,4,3,14,17,09,236,,19,16,250,,22,24,113,,23,75,068,37*77
$GPGSV,4,4,14,26,10,066,29,31,06,031,34*73
$GPGLL,5007.00675,N,01427.63644,E,200853.00,A,A*60
$GPRMC,200854.00,A,5007.00674,N,01427.63631,E,0.427,,100719,,,A*72
$GPVTG,,T,,M,0.427,N,0.792,K,A*2E
$GPGGA,200854.00,5007.00674,N,01427.63631,E,1,08,0.96,281.1,M,44.3,M,,*5F
$GPGSA,A,3,31,02,23,26,03,06,09,07,,,,,1.57,0.96,1.23*00
$GPGSV,4,1,14,01,04,160,,02,17,318,45,03,44,106,29,04,39,238,28*76
$GPGSV,4,2,14,06,52,287,52,07,17,180,20,09,61,240,34,16,02,092,*7A
$GPGSV,4,3,14,17,09,236,,19,16,250,,22,24,113,,23,75,068,38*78
$GPGSV,4,4,14,26,10,066,28,31,06,031,34*72
$TIME,297
$STROKE,56,299,0x1C,0x22,0xC2,0x04,0x00,0x00,0x00,0x01,0x01,4,0,1
$STROKE,57,299,0x1C,0x22,0xC2,0x04,0x00,0x00,0x00,0x01,0x01,4,0,1
$MPL,28,305,0,98775.75,18.25
$GPGLL,5007.00568,N,01427.63480,E,200903.00,A,A*61
$GPRMC,200904.00,A,5007.00547,N,01427.63458,E,0.540,,100719,,,A*78
$GPVTG,,T,,M,0.540,N,1.000,K,A*23
$GPGGA,200904.00,5007.00547,N,01427.63458,E,1,08,0.97,277.6,M,44.3,M,,*5A
$GPGSA,A,3,31,02,23,26,03,06,09,07,,,,,1.57,0.97,1.24*06
$GPGSV,4,1,14,01,04,160,,02,17,318,45,03,44,106,30,04,39,238,27*71
$GPGSV,4,2,14,06,52,287,52,07,17,180,16,09,61,240,33,16,02,092,*78
$GPGSV,4,3,14,17,09,236,,19,16,250,,22,24,113,,23,75,068,39*79
$GPGSV,4,4,14,26,10,066,24,31,06,031,32*78
$GPGLL,5007.00547,N,01427.63458,E,200904.00,A,A*6E
$GPRMC,200905.00,A,5007.00531,N,01427.63440,E,0.518,,100719,,,A*7C
$TIME,308
$STROKE,58,309,0x1C,0x22,0xC2,0x04,0xD5,0x05,0x08,0x01,0x01,4,525781,1
$STROKE,59,310,0x1C,0x22,0xC2,0x04,0x00,0x00,0x00,0x01,0x01,4,0,1
$STROKE,60,315,0x1C,0x22,0xC2,0x04,0x00,0x00,0x00,0x01,0x01,4,0,1
$MPL,29,316,0,98771.00,18.13
$GPRMC,200914.00,A,5007.00508,N,01427.63287,E,0.026,,100719,,,A*73
$GPVTG,,T,,M,0.026,N,0.049,K,A*2A
$GPGGA,200914.00,5007.00508,N,01427.63287,E,1,08,0.97,276.0,M,44.3,M,,*53
$GPGSA,A,3,31,02,23,26,03,06,09,07,,,,,1.57,0.97,1.24*06
$GPGSV,4,1,14,01,04,160,,02,17,318,45,03,44,106,31,04,39,238,28*7F
$GPGSV,4,2,14,06,52,287,52,07,17,180,19,09,61,240,35,16,02,092,*71
$GPGSV,4,3,14,17,09,236,,19,16,250,,22,24,113,,23,75,068,38*78
$GPGSV,4,4,14,26,10,066,24,31,06,031,30*7A
$GPGLL,5007.00508,N,01427.63287,E,200914.00,A,A*60
$GPRMC,200915.00,A,5007.00519,N,01427.63282,E,0.295,,100719,,,A*7D
$GPVTG,,T,,M,0.295,N,0.546,K,A*2A
$TIME,318
$STROKE,61,319,0x1C,0x22,0xC2,0x04,0x6E,0xEF,0x07,0x01,0x01,4,520046,1
$STROKE,62,320,0x1C,0x22,0xC2,0x04,0x00,0x00,0x00,0x01,0x01,4,0,1
$STROKE,63,325,0x1C,0x22,0xC2,0x04,0x00,0x00,0x00,0x01,0x01,4,0,1
$MPL,30,326,0,98767.25,18.00
$GPRMC,200924.00,A,5007.00481,N,01427.63260,E,0.229,,100719,,,A*74
$GPVTG,,T,,M,0.229,N,0.423,K,A*2F
$GPGGA,200924.00,5007.00481,N,01427.63260,E,1,08,0.97,275.6,M,44.3,M,,*5C
$GPGSA,A,3,31,02,23,26,03,06,09,07,,,,,1.57,0.97,1.24*06
$GPGSV,4,1,14,01,04,160,,02,17,318,45,03,44,106,30,04,39,238,29*7F
$GPGSV,4,2,14,06,52,287,52,07,17,180,17,09,61,240,35,16,02,092,*7F
$GPGSV,4,3,14,17,09,236,,19,16,250,,22,24,113,,23,75,068,37*77
$GPGSV,4,4,14,26,10,066,25,31,06,031,29*73
$GPGLL,5007.00481,N,01427.63260,E,200924.00,A,A*6A
$GPRMC,200925.00,A,5007.00486,N,01427.63260,E,0.283,,100719,,,A*72
$GPVTG,,T,,M,0.283,N,0.525,K,A*28
$TIME,328
$STROKE,64,329,0x1C,0x22,0xC2,0x04,0x86,0xE7,0x07,0x01,0x01,4,518022,1
$MPL,31,336,0,98764.50,17.88
$GPRMC,200934.00,A,5007.00701,N,01427.63283,E,0.410,,100719,,,A*7F
$GPVTG,,T,,M,0.410,N,0.759,K,A*2D
$GPGGA,200934.00,5007.00701,N,01427.63283,E,1,08,0.97,279.9,M,44.3,M,,*58
$GPGSA,A,3,31,02,23,26,03,06,09,07,,,,,1.57,0.97,1.24*06
$GPGSV,4,1,14,01,04,160,,02,17,318,45,03,44,106,27,04,39,238,29*79
$GPGSV,4,2,14,06,52,287,52,07,17,180,18,09,61,240,38,16,02,092,*7D
$GPGSV,4,3,14,17,09,236,,19,16,250,,22,24,113,,23,75,068,35*75
$GPGSV,4,4,14,26,10,066,18,31,06,031,29*7D
$GPGLL,5007.00701,N,01427.63283,E,200934.00,A,A*6D
$GPRMC,200935.00,A,5007.00737,N,01427.63288,E,0.408,,100719,,,A*79
$GPVTG,,T,,M,0.408,N,0.755,K,A*28
$TIME,338
$STROKE,65,339,0x1C,0x22,0xC2,0x04,0x9B,0xCF,0x01,0x01,0x01,4,118683,1
$STROKE,66,339,0x1C,0x22,0xC2,0x04,0xB0,0xFA,0x07,0x01,0x01,4,522928,1
$MPL,32,346,0,98762.50,17.75
$GPGGA,200944.00,5007.00850,N,01427.63289,E,1,08,2.30,284.2,M,44.3,M,,*58
$GPGSA,A,3,31,02,23,26,03,06,09,07,,,,,3.66,2.30,2.85*01
$GPGSV,4,1,14,01,04,160,,02,17,318,45,03,43,107,27,04,40,239,27*7E
$GPGSV,4,2,14,06,52,286,52,07,17,180,14,09,61,240,35,16,02,092,*7D
$GPGSV,4,3,14,17,09,236,,19,16,250,,22,24,113,,23,75,068,34*74
$GPGSV,4,4,14,26,10,066,19,31,06,031,26*73
$GPGLL,5007.00850,N,01427.63289,E,200944.00,A,A*6B
$GPRMC,200945.00,A,5007.00854,N,01427.63288,E,0.278,,100719,,,A*75
$GPVTG,,T,,M,0.278,N,0.515,K,A*2F
$GPGGA,200945.00,5007.00854,N,01427.63288,E,1,08,2.30,284.5,M,44.3,M,,*5B
$GPGSA,A,3,31,02,23,26,03,06,09,07,,,,,3.66,2.30,2.85*01
$TIME,348
$STROKE,67,349,0x1C,0x22,0xC2,0x08,0x05,0xC9,0x06,0x01,0x01,8,444677,1
$STROKE,68,351,0x1C,0x22,0xC2,0x04,0x00,0x00,0x00,0x01,0x01,4,0,1
$MPL,33,356,0,98760.00,17.69
$GPGSV,4,2,14,06,52,286,52,07,17,180,11,09,62,240,35,16,02,092,*7B
$GPGSV,4,3,14,17,09,236,,19,16,250,,22,24,113,,23,75,068,31*71
$GPGSV,4,4,14,26,10,066,26,31,06,031,26*7F
$GPGLL,5007.00834,N,01427.63274,E,200954.00,A,A*6A
$GPRMC,200955.00,A,5007.00824,N,01427.63271,E,0.369,,100719,,,A*74
$GPVTG,,T,,M,0.369,N,0.684,K,A*25
$GPGGA,200955.00,5007.00824,N,01427.63271,E,1,08,1.04,286.3,M,44.3,M,,*5B
$GPGSA,A,3,31,02,23,26,03,06,09,07,,,,,1.65,1.04,1.28*00
$GPGSV,4,1,14,01,04,160,,02,17,318,46,03,43,107,26,04,40,239,26*7D
$GPGSV,4,2,14,06,52,286,52,07,17,180,11,09,62,240,35,16,02,092,*7B
$GPGSV,4,3,14,17,09,236,,19,16,250,,22,24,113,,23,75,068,30*70
$TIME,358
$STROKE,69,360,0x1C,0x22,0xC2,0x04,0x54,0x6C,0x07,0x01,0x01,4,486484,1
$STROKE,70,360,0x1C,0x22,0xC2,0x04,0x55,0x03,0x08,0x01,0x01,4,525141,1
$STROKE,71,364,0x1C,0x22,0xC2,0x04,0x00,0x00,0x00,0x01,0x01,4,0,1
$MPL,34,366,0,98762.25,17.63
$GPGSV,4,4,14,26,10,066,24,31,06,031,20*7B
$GPGLL,5007.00949,N,01427.63132,E,201004.00,A,A*6D
$GPRMC,201005.00,A,5007.00928,N,01427.63129,E,0.411,,100719,,,A*72
$GPVTG,,T,,M,0.411,N,0.762,K,A*24
$GPGGA,201005.00,5007.00928,N,01427.63129,E,1,08,1.04,291.0,M,44.3,M,,*50
$GPGSA,A,3,31,02,23,26,03,06,09,07,,,,,1.65,1.04,1.28*00
$GPGSV,4,1,14,01,04,160,19,02,17,318,46,03,43,107,27,04,40,239,29*7B
$GPGSV,4,2,14,06,52,286,51,07,17,180,19,09,62,240,34,16,02,092,*71
$GPGSV,4,3,14,17,09,236,,19,16,249,,22,24,113,,23,74,068,26*7E
$GPGSV,4,4,14,26,10,066,25,31,06,031,19*70
$GPGLL,5007.00928,N,01427.63129,E,201005.00,A,A*61
$TIME,368
$STROKE,72,370,0x1C,0x22,0xC2,0x04,0x00,0x00,0x00,0x01,0x01,4,0,1
$STROKE,73,371,0x1C,0x22,0xC2,0x04,0x00,0x00,0x00,0x01,0x01,4,0,1
$MPL,35,376,0,98762.75,17.56
$GPRMC,201015.00,A,5007.00882,N,01427.62937,E,0.157,,100719,,,A*73
$GPVTG,,T,,M,0.157,N,0.291,K,A*2A
$GPGGA,201015.00,5007.00882,N,01427.62937,E,1,07,2.20,291.0,M,44.3,M,,*5C
$GPGSA,A,3,31,02,23,26,03,06,09,,,,,,3.40,2.20,2.59*02
$GPGSV,4,1,14,01,04,160,21,02,17,318,46,03,43,107,26,04,40,239,31*78
$GPGSV,4,2,14,06,52,286,51,07,17,180,09,09,62,240,32,16,02,092,*76
$GPGSV,4,3,14,17,09,236,,19,16,249,,22,24,113,,23,74,068,27*7F
$GPGSV,4,4,14,26,10,066,25,31,05,031,18*72
$GPGLL,5007.00882,N,01427.62937,E,201015.00,A,A*67
$GPRMC,201016.00,A,5007.00881,N,01427.62912,E,0.165,,100719,,,A*75
$GPVTG,,T,,M,0.165,N,0.305,K,A*27
$TIME,379
$STROKE,74,380,0x1C,0x22,0xC2,0x04,0x77,0xE0,0x07,0x01,0x01,4,516215,1
$MPL,36,387,0,98760.50,17.50
$GPRMC,201025.00,A,5007.00803,N,01427.62727,E,0.177,,100719,,,A*74
$GPVTG,,T,,M,0.177,N,0.327,K,A*24
$GPGGA,201025.00,5007.00803,N,01427.62727,E,1,08,2.20,290.3,M,44.3,M,,*54
$GPGSA,A,3,31,02,23,26,03,06,09,07,,,,,3.40,2.20,2.59*05
$GPGSV,4,1,14,01,04,160,21,02,17,318,46,03,43,107,23,04,40,239,31*7D
$GPGSV,4,2,14,06,52,286,51,07,17,180,21,09,62,240,35,16,02,092,*7B
$GPGSV,4,3,14,17,09,236,,19,16,249,,22,24,113,,23,74,068,34*7D
$GPGSV,4,4,14,26,10,066,27,31,05,031,25*7E
$GPGLL,5007.00803,N,01427.62727,E,201025.00,A,A*62
$GPRMC,201026.00,A,5007.00793,N,01427.62701,E,0.097,,100719,,,A*7A
$GPVTG,,T,,M,0.097,N,0.180,K,A*24
$TIME,389
$STROKE,75,390,0x1C,0x22,0xC2,0x04,0x19,0xE1,0x07,0x01,0x01,4,516377,1
$STROKE,76,393,0x1C,0x22,0xC2,0x04,0x00,0x00,0x00,0x01,0x01,4,0,1
$MPL,37,397,0,98758.25,17.38
$GPRMC,201035.00,A,5007.00703,N,01427.62422,E,0.047,,100719,,,A*7E
$GPVTG,,T,,M,0.047,N,0.087,K,A*2F
$GPGGA,201035.00,5007.00703,N,01427.62422,E,1,08,0.97,289.3,M,44.3,M,,*5A
$GPGSA,A,3,31,02,23,26,03,06,09,07,,,,,1.58,0.97,1.25*08
$GPGSV,4,1,14,01,04,160,12,02,17,318,46,03,43,107,25,04,40,239,30*7A
$GPGSV,4,2,14,06,52,286,51,07,17,180,23,09,62,240,33,16,02,092,*7F
$GPGSV,4,3,14,17,09,236,,19,16,249,,22,24,113,,23,74,068,37*7E
$GPGSV,4,4,14,26,10,066,30,31,05,031,25*78
$GPGLL,5007.00703,N,01427.62422,E,201035.00,A,A*6A
$GPRMC,201036.00,A,5007.00696,N,01427.62399,E,0.055,,100719,,,A*74
$GPVTG,,T,,M,0.055,N,0.101,K,A*23
$TIME,399
$STROKE,77,400,0x1C,0x22,0xC2,0x04,0x57,0x06,0x08,0x01,0x01,4,525911,1
$STROKE,78,402,0x1C,0x22,0xC2,0x04,0x00,0x00,0x00,0x01,0x01,4,0,1
$MPL,38,407,0,98759.50,17.44
$GPVTG,,T,,M,0.204,N,0.379,K,A*28
$GPGGA,201045.00,5007.00600,N,01427.62275,E,1,08,0.97,287.7,M,44.3,M,,*51
$GPGSA,A,3,31,02,23,26,03,06,09,07,,,,,1.58,0.97,1.25*08
$GPGSV,4,1,14,01,04,160,13,02,17,318,46,03,43,107,27,04,40,239,28*70
$GPGSV,4,2,14,06,52,286,51,07,17,180,27,09,62,240,33,16,02,092,*7B
$GPGSV,4,3,14,17,09,236,,19,16,249,,22,24,113,,23,74,068,37*7E
$GPGSV,4,4,14,26,10,066,30,31,05,031,22*7F
$GPGLL,5007.00600,N,01427.62275,E,201045.00,A,A*6B
$GPRMC,201046.00,A,5007.00589,N,01427.62264,E,0.112,,100719,,,A*7F
$GPVTG,,T,,M,0.112,N,0.208,K,A*2B
$GPGGA,201046.00,5007.00589,N,01427.62264,E,1,08,1.04,287.5,M,44.3,M,,*59
$TIME,409
$STROKE,79,410,0x1C,0x22,0xC2,0x04,0x8C,0xE1,0x07,0x01,0x01,4,516492,1
$STROKE,80,413,0x1C,0x22,0xC2,0x04,0x00,0x00,0x00,0x01,0x01,4,0,1
$MPL,39,417,0,98757.25,17.38
$GPGSA,A,3,31,02,23,26,03,06,09,07,,,,,1.69,1.04,1.34*01
$GPGSV,4,1,14,01,03,160,12,02,18,318,47,03,43,107,28,04,40,239,27*78
$GPGSV,4,2,14,06,52,285,51,07,18,180,28,09,62,240,33,16,02,092,*78
$GPGSV,4,3,14,17,09,236,,19,16,249,,22,24,113,,23,74,068,36*7F
$GPGSV,4,4,14,26,10,066,25,31,05,031,22*7B
$GPGLL,5007.00482,N,01427.62241,E,201055.00,A,A*65
$GPRMC,201056.00,A,5007.00475,N,01427.62241,E,0.153,,100719,,,A*7E
$GPVTG,,T,,M,0.153,N,0.284,K,A*2A
$GPGGA,201056.00,5007.00475,N,01427.62241,E,1,08,1.04,285.5,M,44.3,M,,*5F
$GPGSA,A,3,31,02,23,26,03,06,09,07,,,,,1.69,1.04,1.34*01
$GPGSV,4,1,14,01,03,160,12,02,18,318,47,03,43,107,28,04,40,239,27*78
$TIME,419
$STROKE,81,420,0x1C,0x22,0xC2,0x04,0x25,0xFD,0x00,0x01,0x01,4,64805,1
$STROKE,82,421,0x1C,0x22,0xC2,0x08,0x8E,0x9B,0x01,0x01,0x01,8,105358,1
$STROKE,83,424,0x1C,0x22,0xC2,0x04,0xEF,0xE1,0x07,0x01,0x01,4,516591,1
$STROKE,84,425,0x1C,0x22,0xC2,0x04,0x00,0x00,0x00,0x01,0x01,4,0,1
$MPL,40,427,0,98757.75,17.38
$GPGSV,4,3,14,17,08,236,,19,16,249,,22,24,113,,23,74,068,32*7A
$GPGSV,4,4,14,26,10,066,27,31,05,031,22*79
$GPGLL,5007.00408,N,01427.62283,E,201105.00,A,A*6D
$GPRMC,201106.00,A,5007.00399,N,01427.62290,E,0.080,,100719,,,A*7C
$GPVTG,,T,,M,0.080,N,0.149,K,A*27
$GPGGA,201106.00,5007.00399,N,01427.62290,E,1,08,1.04,284.1,M,44.3,M,,*57
$GPGSA,A,3,31,02,23,26,03,06,09,07,,,,,1.69,1.04,1.34*01
$GPGSV,4,1,14,01,03,160,12,02,18,318,47,03,43,107,30,04,40,239,24*72
$GPGSV,4,2,14,06,52,285,52,07,18,180,26,09,63,241,32,16,03,092,*75
$GPGSV,4,3,14,17,08,236,,19,16,249,,22,24,113,,23,74,068,32*7A
$GPGSV,4,4,14,26,10,066,28,31,05,031,22*76
$TIME,429
$STROKE,85,431,0x1C,0x22,0xC2,0x08,0x71,0xBD,0x00,0x01,0x01,8,48497,1
$MPL,41,437,0,98757.25,17.31
$GPGLL,5007.00287,N,01427.62414,E,201115.00,A,A*65
$GPRMC,201116.00,A,5007.00269,N,01427.62433,E,0.083,,100719,,,A*7F
$GPVTG,,T,,M,0.083,N,0.154,K,A*28
$GPGGA,201116.00,5007.00269,N,01427.62433,E,1,09,0.94,282.0,M,44.3,M,,*59
$GPGSA,A,3,31,02,23,26,03,06,19,09,07,,,,1.53,0.94,1.21*0C
$GPGSV,4,1,14,01,03,160,18,02,18,318,47,03,43,107,32,04,40,239,16*7B
$GPGSV,4,2,14,06,52,285,52,07,18,180,27,09,63,241,35,16,03,092,*73
$GPGSV,4,3,14,17,08,236,,19,16,249,29,22,23,113,,23,74,068,31*75
$GPGSV,4,4,14,26,11,065,29,31,05,031,24*73
$GPGLL,5007.00269,N,01427.62433,E,201116.00,A,A*63
$GPRMC,201117.00,A,5007.00256,N,01427.62453,E,0.056,,100719,,,A*7C
$TIME,440
$STROKE,86,441,0x1C,0x22,0xC2,0x04,0x8C,0x89,0x01,0x01,0x01,4,100748,1
$STROKE,87,441,0x1C,0x22,0xC2,0x08,0x3D,0xCF,0x01,0x01,0x01,8,118589,1
$MPL,42,448,0,98759.25,17.25
$GPRMC,201126.00,A,5007.00199,N,01427.62587,E,0.025,,100719,,,A*72
$GPVTG,,T,,M,0.025,N,0.046,K,A*26
$GPGGA,201126.00,5007.00199,N,01427.62587,E,1,09,0.94,281.0,M,44.3,M,,*5B
$GPGSA,A,3,31,02,23,26,03,06,19,09,07,,,,1.53,0.94,1.21*0C
$GPGSV,4,1,14,01,03,160,21,02,18,318,47,03,43,107,33,04,40,239,18*7E
$GPGSV,4,2,14,06,52,285,52,07,18,180,26,09,63,241,36,16,03,092,*71
$GPGSV,4,3,14,17,08,236,,19,16,249,28,22,23,113,21,23,74,068,30*76
$GPGSV,4,4,14,26,11,065,27,31,05,031,22*7B
$GPGLL,5007.00199,N,01427.62587,E,201126.00,A,A*62
$GPRMC,201127.00,A,5007.00200,N,01427.62600,E,0.055,,100719,,,A*7B
$GPVTG,,T,,M,0.055,N,0.102,K,A*20
$TIME,450
$STROKE,88,451,0x1C,0x22,0xC2,0x04,0x78,0x13,0x08,0x01,0x01,4,529272,1
$STROKE,89,457,0x1C,0x22,0xC2,0x04,0x00,0x00,0x00,0x01,0x01,4,0,1
$MPL,43,458,0,98754.00,17.19
$GPRMC,201136.00,A,5007.00304,N,01427.62699,E,0.012,,100719,,,A*7D
$GPVTG,,T,,M,0.012,N,0.022,K,A*20
$GPGGA,201136.00,5007.00304,N,01427.62699,E,1,10,0.94,283.3,M,44.3,M,,*59
$GPGSA,A,3,31,02,23,26,17,03,06,19,09,07,,,1.53,0.94,1.21*0A
$GPGSV,4,1,14,01,03,160,24,02,18,318,47,03,43,107,30,04,40,239,23*70
$GPGSV,4,2,14,06,52,285,51,07,18,180,26,09,63,241,38,16,03,092,*7C
$GPGSV,4,3,14,17,08,236,18,19,16,249,28,22,23,113,22,23,74,068,23*7E
$GPGSV,4,4,14,26,11,065,14,31,05,031,20*79
$GPGLL,5007.00304,N,01427.62699,E,201136.00,A,A*69
$GPRMC,201137.00,A,5007.00323,N,01427.62708,E,0.027,,100719,,,A*76
$GPVTG,,T,,M,0.027,N,0.050,K,A*23
$TIME,460
$STROKE,90,461,0x1C,0x22,0xC2,0x04,0xF0,0xE8,0x07,0x01,0x01,4,518384,1
$STROKE,91,463,0x1C,0x22,0xC2,0x04,0x00,0x00,0x00,0x01,0x01,4,0,1
$MPL,44,468,0,98750.00,17.13
$GPRMC,201146.00,A,5007.00371,N,01427.62746,E,0.185,,100719,,,A*74
$GPVTG,,T,,M,0.185,N,0.342,K,A*2A
$GPGGA,201146.00,5007.00371,N,01427.62746,E,1,10,0.90,284.0,M,44.3,M,,*5F
$GPGSA,A,3,31,02,23,26,17,03,06,19,09,07,,,1.43,0.90,1.12*0F
$GPGSV,4,1,14,01,03,160,23,02,18,318,47,03,43,107,30,04,40,239,26*72
$GPGSV,4,2,14,06,52,285,52,07,18,180,28,09,63,241,35,16,03,092,*7C
$GPGSV,4,3,14,17,08,236,17,19,16,249,28,22,23,113,25,23,74,068,23*76
$GPGSV,4,4,14,26,11,065,20,31,05,031,18*75
$GPGLL,5007.00371,N,01427.62746,E,201146.00,A,A*6F
$GPRMC,201147.00,A,5007.00370,N,01427.62748,E,0.065,,100719,,,A*75
$GPVTG,,T,,M,0.065,N,0.119,K,A*29
$TIME,470
$STROKE,92,471,0x1C,0x22,0xC2,0x04,0x00,0xEE,0x02,0x01,0x01,4,192000,1
$STROKE,93,472,0x1C,0x22,0xC2,0x08,0x74,0x0B,0x07,0x01,0x01,8,461684,1
$STROKE,94,475,0x1C,0x22,0xC2,0x04,0x00,0x00,0x00,0x01,0x01,4,0,1
$STROKE,95,476,0x1C,0x22,0xC2,0x04,0x00,0x00,0x00,0x01,0x01,4,0,1
$STROKE,96,477,0x1C,0x22,0xC2,0x04,0x00,0x00,0x00,0x01,0x01,4,0,1
$MPL,45,478,0,98751.75,17.13
$GPGSA,A,3,31,02,23,26,17,03,06,19,09,07,,,1.53,0.94,1.21*0A
$GPGSV,4,1,14,01,03,160,19,02,18,318,47,03,43,107,27,04,40,239,26*7D
$GPGSV,4,2,14,06,52,285,51,07,18,180,28,09,63,241,18,16,03,092,*70
$GPGSV,4,3,14,17,08,236,15,19,16,249,27,22,23,113,27,23,74,068,29*73
$GPGSV,4,4,14,26,11,065,21,31,05,031,16*7A
$GPGLL,5007.00313,N,01427.62679,E,201156.00,A,A*67
$GPRMC,201157.00,A,5007.00311,N,01427.62677,E,0.344,,100719,,,A*7E
$GPVTG,,T,,M,0.344,N,0.636,K,A*23
$GPGGA,201157.00,5007.00311,N,01427.62677,E,1,10,0.94,283.1,M,44.3,M,,*58
$GPGSA,A,3,31,02,23,26,17,03,06,19,09,07,,,1.53,0.94,1.21*0A
$GPGSV,4,1,14,01,03,160,18,02,18,318,47,03,43,107,26,04,40,239,25*7E
$TIME,480
$STROKE,97,482,0x1C,0x22,0xC2,0x04,0x49,0x15,0x08,0x01,0x01,4,529737,1
$STROKE,98,485,0x1C,0x22,0xC2,0x04,0x00,0x00,0x00,0x01,0x01,4,0,1
$MPL,46,488,0,98751.75,17.06
$GPGSV,4,2,14,06,52,284,50,07,18,180,28,09,63,241,08,16,03,092,*71
$GPGSV,4,3,14,17,08,236,17,19,16,249,26,22,23,113,28,23,74,068,34*73
$GPGSV,4,4,14,26,11,065,16,31,05,031,14*7C
$GPGLL,5007.00220,N,01427.62596,E,201206.00,A,A*62
$GPRMC,201207.00,A,5007.00214,N,01427.62591,E,0.045,,100719,,,A*75
$GPVTG,,T,,M,0.045,N,0.083,K,A*29
$GPGGA,201207.00,5007.00214,N,01427.62591,E,1,10,0.91,281.6,M,44.3,M,,*51
$GPGSA,A,3,31,02,23,26,17,03,06,19,07,22,,,1.62,0.91,1.34*00
$GPGSV,4,1,14,01,03,160,12,02,18,318,47,03,42,107,26,04,41,239,25*74
$GPGSV,4,2,14,06,52,284,50,07,18,180,28,09,63,241,08,16,03,092,*71
$GPGSV,4,3,14,17,08,236,17,19,16,249,26,22,23,113,27,23,74,068,34*7C
$TIME,490
$STROKE,99,492,0x1C,0x22,0xC2,0x04,0x87,0xF3,0x00,0x01,0x01,4,62343,1
$STROKE,100,492,0x1C,0x22,0xC2,0x04,0x00,0x00,0x00,0x01,0x01,4,0,1
$MPL,47,498,0,98752.50,17.00
$GPGLL,5007.00191,N,01427.62570,E,201216.00,A,A*62
$GPRMC,201217.00,A,5007.00193,N,01427.62575,E,0.038,,100719,,,A*78
$GPVTG,,T,,M,0.038,N,0.071,K,A*2E
$GPGGA,201217.00,5007.00193,N,01427.62575,E,1,10,0.88,281.2,M,44.3,M,,*5A
$GPGSA,A,3,31,02,23,26,17,03,06,09,07,22,,,1.43,0.88,1.13*0F
$GPGSV,4,1,14,01,03,160,09,02,18,318,46,03,42,107,30,04,41,239,27*7A
$GPGSV,4,2,14,06,52,284,51,07,18,180,24,09,63,241,34,16,03,091,*70
$GPGSV,4,3,14,17,08,235,18,19,16,249,,22,23,113,22,23,74,068,31*74
$GPGSV,4,4,14,26,11,065,17,31,05,031,15*7C
$GPGLL,5007.00193,N,01427.62575,E,201217.00,A,A*64
$GPRMC,201218.00,A,5007.00195,N,01427.62572,E,0.050,,100719,,,A*78
$TIME,501
$STROKE,101,502,0x1C,0x22,0xC2,0x04,0x82,0xF2,0x07,0x01,0x01,4,520834,1
$STROKE,102,508,0x1C,0x22,0xC2,0x04,0x00,0x00,0x00,0x01,0x01,4,0,1
$MPL,48,509,0,98749.75,16.94
$GPRMC,201227.00,A,5007.00277,N,01427.62682,E,0.058,,100719,,,A*7F
$GPVTG,,T,,M,0.058,N,0.107,K,A*28
$GPGGA,201227.00,5007.00277,N,01427.62682,E,1,10,0.88,282.1,M,44.3,M,,*5B
$GPGSA,A,3,31,02,23,26,17,03,06,09,07,22,,,1.43,0.88,1.13*0F
$GPGSV,4,1,14,01,03,160,15,02,18,318,47,03,42,107,28,04,41,239,29*71
$GPGSV,4,2,14,06,52,284,51,07,18,180,20,09,63,241,37,16,03,091,*77
$GPGSV,4,3,14,17,08,235,17,19,15,249,,22,23,113,19,23,73,067,31*78
$GPGSV,4,4,14,26,11,065,25,31,05,031,15*7D
$GPGLL,5007.00277,N,01427.62682,E,201227.00,A,A*65
$GPRMC,201228.00,A,5007.00284,N,01427.62697,E,0.210,,100719,,,A*76
$GPVTG,,T,,M,0.210,N,0.389,K,A*22
$TIME,511
$STROKE,103,512,0x1C,0x22,0xC2,0x04,0x00,0x00,0x00,0x01,0x01,4,0,1
$STROKE,104,512,0x1C,0x22,0xC2,0x04,0x00,0x00,0x00,0x01,0x01,4,0,1
$STROKE,105,517,0x1C,0x22,0xC2,0x04,0x00,0x00,0x00,0x01,0x01,4,0,1
$MPL,49,519,0,98750.75,16.94
$GPRMC,201237.00,A,5007.00290,N,01427.62780,E,0.046,,100719,,,A*7B
$GPVTG,,T,,M,0.046,N,0.084,K,A*2D
$GPGGA,201237.00,5007.00290,N,01427.62780,E,1,09,1.00,281.9,M,44.3,M,,*52
$GPGSA,A,3,02,23,26,17,03,06,09,07,22,,,,1.67,1.00,1.34*0F
$GPGSV,4,1,14,01,03,160,18,02,18,318,47,03,42,107,27,04,41,239,31*7A
$GPGSV,4,2,14,06,52,284,51,07,18,180,24,09,63,241,32,16,03,091,*76
$GPGSV,4,3,14,17,08,235,11,19,15,249,,22,23,113,22,23,73,067,31*76
$GPGSV,4,4,14,26,11,065,25,31,04,031,18*71
$GPGLL,5007.00290,N,01427.62780,E,201237.00,A,A*6E
$GPRMC,201238.00,A,5007.00294,N,01427.62786,E,0.029,,100719,,,A*7F
$GPVTG,,T,,M,0.029,N,0.053,K,A*2E
$TIME,521
$STROKE,106,522,0x1C,0x22,0xC2,0x04,0x82,0xCE,0x02,0x01,0x01,4,183938,1
$STROKE,107,522,0x1C,0x22,0xC2,0x04,0x3E,0x08,0x08,0x01,0x01,4,526398,1
$STROKE,108,523,0x1C,0x22,0xC2,0x04,0x00,0x00,0x00,0x01,0x01,4,0,1
$STROKE,109,524,0x1C,0x22,0xC2,0x04,0x00,0x00,0x00,0x01,0x01,4,0,1
$MPL,50,529,0,98748.75,16.94
$GPVTG,,T,,M,0.253,N,0.469,K,A*2C
$GPGGA,201247.00,5007.00297,N,01427.62838,E,1,09,1.00,282.0,M,44.3,M,,*54
$GPGSA,A,3,02,23,26,03,06,19,09,07,22,,,,1.67,1.00,1.34*01
$GPGSV,4,1,14,01,03,160,14,02,18,318,47,03,42,107,28,04,41,239,25*7C
$GPGSV,4,2,14,06,52,284,51,07,18,180,24,09,63,241,33,16,03,091,*77
$GPGSV,4,3,14,17,08,235,06,19,15,249,22,22,23,113,25,23,73,067,27*70
$GPGSV,4,4,14,26,11,065,23,31,04,031,20*7C
$GPGLL,5007.00297,N,01427.62838,E,201247.00,A,A*62
$GPRMC,201248.00,A,5007.00296,N,01427.62842,E,0.029,,100719,,,A*7D
$GPVTG,,T,,M,0.029,N,0.053,K,A*2E
$GPGGA,201248.00,5007.00296,N,01427.62842,E,1,09,1.00,281.9,M,44.3,M,,*5D
$TIME,531
$STROKE,110,532,0x1C,0x22,0xC2,0x04,0xE0,0xED,0x07,0x01,0x01,4,519648,1
$STROKE,111,535,0x1C,0x22,0xC2,0x04,0x00,0x00,0x00,0x01,0x01,4,0,1
$STROKE,112,538,0x1C,0x22,0xC2,0x04,0x00,0x00,0x00,0x01,0x01,4,0,1
$MPL,51,539,0,98747.50,16.88
$GPGSV,4,1,14,01,03,160,10,02,18,318,47,03,42,107,32,04,41,239,22*74
$GPGSV,4,2,14,06,52,284,51,07,18,180,25,09,63,241,27,16,03,091,*73
$GPGSV,4,3,14,17,08,235,11,19,15,249,18,22,23,113,25,23,73,067,31*78
$GPGSV,4,4,14,26,11,065,18,31,04,031,16*71
$GPGLL,5007.00260,N,01427.62877,E,201257.00,A,A*60
$GPRMC,201258.00,A,5007.00261,N,01427.62883,E,0.040,,100719,,,A*76
$GPVTG,,T,,M,0.040,N,0.074,K,A*24
$GPGGA,201258.00,5007.00261,N,01427.62883,E,1,10,0.89,281.2,M,44.3,M,,*5A
$GPGSA,A,3,02,23,26,17,03,06,19,09,07,22,,,1.49,0.89,1.20*0E
$GPGSV,4,1,14,01,03,160,10,02,18,318,47,03,42,107,32,04,41,239,22*74
$GPGSV,4,2,14,06,52,284,51,07,18,180,24,09,63,241,27,16,03,091,*72
$TIME,541
$STROKE,113,543,0x1C,0x22,0xC2,0x04,0x00,0x00,0x00,0x01,0x01,4,0,1
$STROKE,114,546,0x1C,0x22,0xC2,0x04,0x00,0x00,0x00,0x01,0x01,4,0,1
$MPL,52,549,0,98748.00,16.88
$GPGSV,4,4,14,26,11,065,13,31,04,031,*7D
$GPGLL,5007.00258,N,01427.62911,E,201307.00,A,A*6E
$GPRMC,201308.00,A,5007.00263,N,01427.62914,E,0.127,,100719,,,A*7F
$GPVTG,,T,,M,0.127,N,0.235,K,A*23
$GPGGA,201308.00,5007.00263,N,01427.62914,E,1,10,0.89,281.3,M,44.3,M,,*52
$GPGSA,A,3,02,23,26,17,03,06,19,09,07,22,,,1.49,0.89,1.20*0E
$GPGSV,4,1,14,01,03,160,,02,18,318,47,03,42,107,28,04,41,239,18*77
$GPGSV,4,2,14,06,52,284,50,07,18,180,22,09,63,241,29,16,03,091,*7B
$GPGSV,4,3,14,17,08,235,13,19,15,249,22,22,23,113,24,23,73,067,28*7A
$GPGSV,4,4,14,26,11,065,15,31,04,031,*7B
$GPGLL,5007.00263,N,01427.62914,E,201308.00,A,A*6C
$TIME,551
$STROKE,115,553,0x1C,0x22,0xC2,0x04,0x00,0x00,0x00,0x01,0x01,4,0,1
$STROKE,116,553,0x1C,0x22,0xC2,0x04,0x00,0x00,0x00,0x01,0x01,4,0,1
$MPL,53,560,0,98745.50,16.81
$GPRMC,201318.00,A,5007.00242,N,01427.62872,E,0.091,,100719,,,A*70
$GPVTG,,T,,M,0.091,N,0.168,K,A*24
$GPGGA,201318.00,5007.00242,N,01427.62872,E,1,10,0.89,281.1,M,44.3,M,,*53
$GPGSA,A,3,02,23,26,17,03,06,19,09,07,22,,,1.49,0.89,1.20*0E
$GPGSV,4,1,14,01,02,160,,02,19,317,48,03,42,108,30,04,41,240,22*76
$GPGSV,4,2,14,06,53,283,51,07,19,180,16,09,63,241,25,16,03,091,*76
$GPGSV,4,3,14,17,08,235,14,19,15,249,25,22,23,113,17,23,73,067,33*70
$GPGSV,4,4,14,26,11,065,17,31,04,031,*79
$GPGLL,5007.00242,N,01427.62872,E,201318.00,A,A*6F
$GPRMC,201319.00,A,5007.00241,N,01427.62854,E,0.061,,100719,,,A*79
$GPVTG,,T,,M,0.061,N,0.113,K,A*27
$TIME,562
$STROKE,117,563,0x1C,0x22,0xC2,0x04,0x55,0xF4,0x07,0x01,0x01,4,521301,1
$STROKE,118,565,0x1C,0x22,0xC2,0x04,0x00,0x00,0x00,0x01,0x01,4,0,1
$STROKE,119,569,0x1C,0x22,0xC2,0x04,0x00,0x00,0x00,0x01,0x01,4,0,1
$STROKE,120,570,0x1C,0x22,0xC2,0x04,0x00,0x00,0x00,0x01,0x01,4,0,1
$MPL,54,570,0,98750.50,16.81
$GPRMC,201328.00,A,5007.00167,N,01427.62849,E,0.043,,100719,,,A*70
$GPVTG,,T,,M,0.043,N,0.080,K,A*2C
$GPGGA,201328.00,5007.00167,N,01427.62849,E,1,09,0.94,279.7,M,44.3,M,,*59
$GPGSA,A,3,02,23,26,17,03,06,19,09,07,,,,1.54,0.94,1.21*0F
$GPGSV,4,1,14,01,02,160,,02,19,317,48,03,42,108,30,04,41,240,27*73
$GPGSV,4,2,14,06,53,283,51,07,19,180,22,09,64,242,24,16,03,091,*74
$GPGSV,4,3,14,17,07,235,10,19,15,249,29,22,23,113,08,23,73,067,31*7B
$GPGSV,4,4,14,26,11,065,17,31,04,031,*79
$GPGLL,5007.00167,N,01427.62849,E,201328.00,A,A*60
$GPRMC,201329.00,A,5007.00161,N,01427.62852,E,0.022,,100719,,,A*7A
$GPVTG,,T,,M,0.022,N,0.041,K,A*26
$TIME,572
$STROKE,121,573,0x1C,0x22,0xC2,0x04,0x3C,0xA3,0x01,0x01,0x01,4,107324,1
$STROKE,122,574,0x1C,0x22,0xC2,0x04,0xC6,0xFA,0x07,0x01,0x01,4,522950,1
$MPL,55,580,0,98750.50,16.81
$GPVTG,,T,,M,0.122,N,0.226,K,A*24
$GPGGA,201338.00,5007.00109,N,01427.62848,E,1,10,0.94,278.3,M,44.3,M,,*5C
$GPGSA,A,3,02,23,26,17,03,06,19,09,07,22,,,1.54,0.94,1.22*0C
$GPGSV,4,1,14,01,02,160,,02,19,317,47,03,42,108,28,04,41,240,31*72
$GPGSV,4,2,14,06,53,283,51,07,19,180,26,09,64,242,21,16,03,091,*75
$GPGSV,4,3,14,17,07,235,14,19,15,248,27,22,22,114,17,23,73,067,29*71
$GPGSV,4,4,14,26,11,064,17,31,04,031,*78
$GPGLL,5007.00109,N,01427.62848,E,201338.00,A,A*68
$GPRMC,201339.00,A,5007.00107,N,01427.62851,E,0.077,,100719,,,A*78
$GPVTG,,T,,M,0.077,N,0.142,K,A*24
$GPGGA,201339.00,5007.00107,N,01427.62851,E,1,10,0.94,278.2,M,44.3,M,,*5A
$TIME,582
$STROKE,123,583,0x1C,0x22,0xC2,0x04,0x5D,0xF4,0x07,0x01,0x01,4,521309,1
$STROKE,124,587,0x1C,0x22,0xC2,0x04,0xBF,0xE3,0x07,0x01,0x01,4,517055,1
$STROKE,125,590,0x1C,0x22,0xC2,0x04,0x00,0x00,0x00,0x01,0x01,4,0,1
$MPL,56,590,0,98742.75,16.75
$GPGSV,4,1,14,01,02,160,,02,19,317,47,03,42,108,27,04,41,240,31*7D
$GPGSV,4,2,14,06,53,283,51,07,19,180,27,09,64,242,22,16,03,091,21*74
$GPGSV,4,3,14,17,07,235,,19,15,248,26,22,22,114,23,23,73,067,27*7C
$GPGSV,4,4,14,26,11,064,08,31,04,030,*77
$GPGLL,5007.00089,N,01427.62865,E,201348.00,A,A*69
$GPRMC,201349.00,A,5007.00084,N,01427.62856,E,0.102,,100719,,,A*71
$GPVTG,,T,,M,0.102,N,0.190,K,A*28
$GPGGA,201349.00,5007.00084,N,01427.62856,E,1,08,1.21,277.5,M,44.3,M,,*5E
$GPGSA,A,3,02,23,03,06,19,09,07,22,,,,,2.00,1.21,1.59*0F
$GPGSV,4,1,14,01,02,160,,02,19,317,47,03,42,108,27,04,41,240,31*7D
$GPGSV,4,2,14,06,53,283,51,07,19,180,27,09,64,242,24,16,03,091,*71
$TIME,592
$STROKE,126,594,0x1C,0x22,0xC2,0x04,0x24,0xEA,0x07,0x01,0x01,4,518692,1
$STROKE,127,597,0x1C,0x22,0xC2,0x04,0x00,0x00,0x00,0x01,0x01,4,0,1
$STROKE,128,599,0x1C,0x22,0xC2,0x04,0x00,0x00,0x00,0x01,0x01,4,0,1
$MPL,57,600,0,98747.75,16.75
$GPGSV,4,4,14,26,11,064,25,31,04,030,*78
$GPGLL,5007.00039,N,01427.62729,E,201358.00,A,A*64
$GPRMC,201359.00,A,5007.00038,N,01427.62710,E,0.134,,100719,,,A*7F
$GPVTG,,T,,M,0.134,N,0.248,K,A*2B
$GPGGA,201359.00,5007.00038,N,01427.62710,E,1,10,0.89,276.7,M,44.3,M,,*5C
$GPGSA,A,3,02,23,26,17,03,06,19,09,07,22,,,1.49,0.89,1.20*0E
$GPGSV,4,1,14,01,02,160,,02,19,317,47,03,42,108,21,04,41,240,29*72
$GPGSV,4,2,14,06,53,283,51,07,19,180,24,09,64,242,27,16,03,091,*71
$GPGSV,4,3,14,17,07,235,17,19,15,248,25,22,22,114,28,23,73,067,22*77
$GPGSV,4,4,14,26,11,064,25,31,04,030,*78
$GPGLL,5007.00038,N,01427.62710,E,201359.00,A,A*6E
$TIME,602
$STROKE,129,604,0x1C,0x22,0xC2,0x08,0x93,0x84,0x03,0x01,0x01,8,230547,1
$MPL,58,610,0,98747.25,16.69
$GPRMC,201409.00,A,5007.00074,N,01427.62855,E,0.047,,100719,,,A*7E
$GPVTG,,T,,M,0.047,N,0.086,K,A*2E
$GPGGA,201409.00,5007.00074,N,01427.62855,E,1,10,0.89,277.4,M,44.3,M,,*5A
$GPGSA,A,3,02,23,26,17,03,06,19,09,07,22,,,1.49,0.89,1.20*0E
$GPGSV,4,1,14,01,02,160,,02,19,317,46,03,42,108,25,04,41,240,27*79
$GPGSV,4,2,14,06,53,283,51,07,19,180,25,09,64,242,32,16,03,091,*74
$GPGSV,4,3,14,17,07,235,12,19,15,248,26,22,22,114,29,23,73,067,20*72
$GPGSV,4,4,14,26,11,064,27,31,04,030,*7A
$GPGLL,5007.00074,N,01427.62855,E,201409.00,A,A*6A
$GPRMC,201410.00,A,5007.00076,N,01427.62875,E,0.023,,100719,,,A*74
$GPVTG,,T,,M,0.023,N,0.042,K,A*24
$TIME,613
$STROKE,130,614,0x1C,0x22,0xC2,0x04,0xE6,0x12,0x08,0x01,0x01,4,529126,1
$STROKE,131,617,0x1C,0x22,0xC2,0x04,0x00,0x00,0x00,0x01,0x01,4,0,1
$MPL,59,621,0,98745.00,16.69
$GPRMC,201419.00,A,5007.00059,N,01427.62980,E,0.059,,100719,,,A*76
$GPVTG,,T,,M,0.059,N,0.110,K,A*2F
$GPGGA,201419.00,5007.00059,N,01427.62980,E,1,09,0.89,276.0,M,44.3,M,,*50
$GPGSA,A,3,02,23,26,03,06,19,09,07,22,,,,1.49,0.89,1.20*08
$GPGSV,4,1,14,01,02,160,,02,19,317,46,03,42,108,24,04,41,240,29*76
$GPGSV,4,2,14,06,53,283,50,07,19,180,19,09,64,242,31,16,03,091,*79
$GPGSV,4,3,14,17,07,235,,19,15,248,22,22,22,114,31,23,73,067,22*7E
$GPGSV,4,4,14,26,11,064,30,31,04,030,*7C
$GPGLL,5007.00059,N,01427.62980,E,201419.00,A,A*6D
$GPRMC,201420.00,A,5007.00055,N,01427.62989,E,0.023,,100719,,,A*74
$GPVTG,,T,,M,0.023,N,0.042,K,A*24
$TIME,623
$STROKE,132,624,0x1C,0x22,0xC2,0x04,0x56,0xE4,0x07,0x01,0x01,4,517206,1
$STROKE,133,630,0x1C,0x22,0xC2,0x08,0x48,0x66,0x03,0x01,0x01,8,222792,1
$STROKE,134,631,0x1C,0x22,0xC2,0x04,0x00,0x00,0x00,0x01,0x01,4,0,1
$MPL,60,631,0,98747.75,16.63
$GPRMC,201429.00,A,5006.99999,N,01427.63048,E,0.098,,100719,,,A*70
$GPVTG,,T,,M,0.098,N,0.181,K,A*2A
$GPGGA,201429.00,5006.99999,N,01427.63048,E,1,09,0.89,274.1,M,44.3,M,,*58
$GPGSA,A,3,02,23,26,03,06,19,09,07,22,,,,1.49,0.89,1.20*08
$GPGSV,4,1,14,01,02,160,06,02,19,317,46,03,41,108,21,04,42,240,33*7E
$GPGSV,4,2,14,06,53,283,51,07,19,180,22,09,64,242,25,16,03,091,*75
$GPGSV,4,3,14,17,07,235,,19,15,248,21,22,22,114,31,23,73,067,25*7A
$GPGSV,4,4,14,26,11,064,29,31,04,030,*74
$GPGLL,5006.99999,N,01427.63048,E,201429.00,A,A*66
$GPRMC,201430.00,A,5006.99989,N,01427.63052,E,0.121,,100719,,,A*71
$GPVTG,,T,,M,0.121,N,0.224,K,A*25
$TIME,633
$STROKE,135,634,0x1C,0x22,0xC2,0x04,0x00,0x00,0x00,0x01,0x01,4,0,1
$STROKE,136,637,0x1C,0x22,0xC2,0x04,0x00,0x00,0x00,0x01,0x01,4,0,1
$MPL,61,641,0,98747.50,16.63
$GPGGA,201439.00,5006.99916,N,01427.63061,E,1,08,0.92,272.2,M,44.3,M,,*5B
$GPGSA,A,3,02,23,26,06,19,09,07,22,,,,,1.53,0.92,1.23*09
$GPGSV,4,1,14,01,02,160,07,02,19,317,46,03,41,108,,04,42,240,34*7B
$GPGSV,4,2,14,06,53,283,51,07,19,180,20,09,64,242,27,16,04,090,*73
$GPGSV,4,3,14,17,07,235,,19,15,248,11,22,22,114,29,23,73,067,30*74
$GPGSV,4,4,14,26,11,064,24,31,04,030,*79
$GPGLL,5006.99916,N,01427.63061,E,201439.00,A,A*6B
$GPRMC,201440.00,A,5006.99907,N,01427.63062,E,0.067,,100719,,,A*70
$GPVTG,,T,,M,0.067,N,0.124,K,A*25
$GPGGA,201440.00,5006.99907,N,01427.63062,E,1,08,0.92,271.9,M,44.3,M,,*5E
$GPGSA,A,3,02,23,26,06,19,09,07,22,,,,,1.53,0.92,1.23*09
$TIME,643
$STROKE,137,644,0x1C,0x22,0xC2,0x04,0x2C,0xDD,0x00,0x01,0x01,4,56620,1
$STROKE,138,645,0x1C,0x22,0xC2,0x08,0xB5,0xFB,0x04,0x01,0x01,8,326581,1
$MPL,62,651,0,98744.75,16.56
$GPGSV,4,2,14,06,53,283,51,07,19,180,18,09,64,242,20,16,04,090,*7F
$GPGSV,4,3,14,17,07,235,,19,14,248,25,22,22,114,27,23,72,067,33*7E
$GPGSV,4,4,14,26,11,064,27,31,04,030,*7A
$GPGLL,5006.99732,N,01427.62937,E,201449.00,A,A*6F
$GPRMC,201450.00,A,5006.99711,N,01427.62917,E,0.132,,100719,,,A*73
$GPVTG,,T,,M,0.132,N,0.244,K,A*21
$GPGGA,201450.00,5006.99711,N,01427.62917,E,1,09,0.89,267.5,M,44.3,M,,*5C
$GPGSA,A,3,02,23,26,03,06,19,09,07,22,,,,1.49,0.89,1.20*08
$GPGSV,4,1,14,01,02,160,,02,19,317,45,03,41,108,22,04,42,240,32*79
$GPGSV,4,2,14,06,53,283,51,07,19,180,17,09,64,242,20,16,04,090,*70
$GPGSV,4,3,14,17,07,235,,19,14,248,26,22,22,114,26,23,72,067,33*7C
$TIME,653
$STROKE,139,655,0x1C,0x22,0xC2,0x04,0x4D,0xD4,0x05,0x01,0x01,4,382029,1
$STROKE,140,655,0x1C,0x22,0xC2,0x04,0x94,0xE4,0x07,0x01,0x01,4,517268,1
$STROKE,141,657,0x1C,0x22,0xC2,0x04,0x00,0x00,0x00,0x01,0x01,4,0,1
$MPL,63,661,0,98752.25,16.50
$GPGSV,4,4,14,26,11,064,32,31,04,030,*7E
$GPGLL,5006.99603,N,01427.62787,E,201459.00,A,A*68
$GPRMC,201500.00,A,5006.99597,N,01427.62779,E,0.132,,100719,,,A*7D
$GPVTG,,T,,M,0.132,N,0.244,K,A*21
$GPGGA,201500.00,5006.99597,N,01427.62779,E,1,09,0.89,265.3,M,44.3,M,,*56
$GPGSA,A,3,02,23,26,03,06,19,09,07,22,,,,1.49,0.89,1.20*08
$GPGSV,4,1,14,01,02,160,,02,19,317,46,03,41,108,23,04,42,240,30*79
$GPGSV,4,2,14,06,53,283,51,07,19,180,19,09,64,242,17,16,04,090,*7A
$GPGSV,4,3,14,17,07,235,,19,14,248,26,22,22,114,27,23,72,067,34*7A
$GPGSV,4,4,14,26,11,064,32,31,04,030,*7E
$GPGLL,5006.99597,N,01427.62779,E,201500.00,A,A*6A
$TIME,663
$STROKE,142,665,0x1C,0x22,0xC2,0x04,0x00,0x00,0x00,0x01,0x01,4,0,1
$STROKE,143,666,0x1C,0x22,0xC2,0x04,0x00,0x00,0x00,0x01,0x01,4,0,1
$STROKE,144,669,0x1C,0x22,0xC2,0x04,0x1B,0xE8,0x07,0x01,0x01,4,518171,1
$MPL,64,671,0,98752.00,16.50
$GPRMC,201510.00,A,5006.99564,N,01427.62730,E,0.083,,100719,,,A*76
$GPVTG,,T,,M,0.083,N,0.154,K,A*28
$GPGGA,201510.00,5006.99564,N,01427.62730,E,1,09,0.89,264.7,M,44.3,M,,*53
$GPGSA,A,3,02,23,26,03,06,19,09,07,22,,,,1.49,0.89,1.20*08
$GPGSV,4,1,14,01,02,160,,02,19,317,45,03,41,108,28,04,42,240,23*73
$GPGSV,4,2,14,06,53,283,51,07,19,180,22,09,64,242,31,16,04,090,*76
$GPGSV,4,3,14,17,07,235,,19,14,248,23,22,22,114,25,23,72,067,34*7D
$GPGSV,4,4,14,26,11,064,31,31,04,030,*7D
$GPGLL,5006.99564,N,01427.62730,E,201510.00,A,A*6A
$GPRMC,201511.00,A,5006.99567,N,01427.62729,E,0.076,,100719,,,A*76
$GPVTG,,T,,M,0.076,N,0.140,K,A*27
$TIME,674
$STROKE,145,675,0x1C,0x22,0xC2,0x04,0xC4,0x3F,0x01,0x01,0x01,4,81860,1
$STROKE,146,675,0x1C,0x22,0xC2,0x08,0x01,0x8B,0x01,0x01,0x01,8,101121,1
$MPL,65,682,0,98751.50,16.44
$GPRMC,201520.00,A,5006.99645,N,01427.62758,E,0.042,,100719,,,A*76
$GPVTG,,T,,M,0.042,N,0.078,K,A*2A
$GPGGA,201520.00,5006.99645,N,01427.62758,E,1,09,0.89,265.6,M,44.3,M,,*5E
$GPGSA,A,3,02,23,26,03,06,19,09,07,22,,,,1.49,0.89,1.20*08
$GPGSV,4,1,14,01,02,160,,02,19,317,45,03,41,108,28,04,42,240,25*75
$GPGSV,4,2,14,06,53,283,50,07,19,180,21,09,64,242,35,16,04,090,*70
$GPGSV,4,3,14,17,07,235,,19,14,248,20,22,22,114,25,23,72,067,33*79
$GPGSV,4,4,14,26,11,064,29,31,04,030,*74
$GPGLL,5006.99645,N,01427.62758,E,201520.00,A,A*67
$GPRMC,201521.00,A,5006.99660,N,01427.62766,E,0.061,,100719,,,A*7C
$GPVTG,,T,,M,0.061,N,0.113,K,A*27
$TIME,684
$STROKE,147,685,0x1C,0x22,0xC2,0x04,0xF9,0x44,0x08,0x01,0x01,4,541945,1
$STROKE,148,691,0x1C,0x22,0xC2,0x04,0x00,0x00,0x00,0x01,0x01,4,0,1
$MPL,66,692,0,98751.25,16.38
$GPRMC,201530.00,A,5006.99813,N,01427.62878,E,0.048,,100719,,,A*7D
$GPVTG,,T,,M,0.048,N,0.090,K,A*26
$GPGGA,201530.00,5006.99813,N,01427.62878,E,1,09,0.89,268.7,M,44.3,M,,*53
$GPGSA,A,3,02,23,26,03,06,19,09,07,22,,,,1.50,0.89,1.20*00
$GPGSV,4,1,14,01,02,160,,02,19,317,43,03,41,108,28,04,42,240,31*76
$GPGSV,4,2,14,06,53,283,47,07,19,180,22,09,64,242,34,16,04,090,*74
$GPGSV,4,3,14,17,07,235,,19,14,248,25,22,22,114,23,23,72,067,32*7B
$GPGSV,4,4,14,26,11,064,28,31,04,030,*75
$GPGLL,5006.99813,N,01427.62878,E,201530.00,A,A*66
$GPRMC,201531.00,A,5006.99835,N,01427.62900,E,0.095,,100719,,,A*76
$GPVTG,,T,,M,0.095,N,0.176,K,A*2F
$TIME,694
$STROKE,149,695,0x1C,0x22,0xC2,0x04,0x00,0x00,0x00,0x01,0x01,4,0,1
$STROKE,150,701,0x1C,0x22,0xC2,0x04,0x00,0x00,0x00,0x01,0x01,4,0,1
$STROKE,151,702,0x1C,0x22,0xC2,0x04,0x00,0x00,0x00,0x01,0x01,4,0,1
$MPL,67,702,0,98750.00,16.44
$GPVTG,,T,,M,0.097,N,0.180,K,A*24
$GPGGA,201540.00,5006.99935,N,01427.63010,E,1,10,0.89,271.4,M,44.3,M,,*55
$GPGSA,A,3,02,23,26,17,03,06,19,09,07,22,,,1.50,0.89,1.20*06
$GPGSV,4,1,14,01,01,160,,02,19,317,43,03,41,108,28,04,42,240,33*77
$GPGSV,4,2,14,06,53,282,52,07,20,180,17,09,64,242,31,16,04,090,*78
$GPGSV,4,3,14,17,07,235,20,19,14,248,25,22,22,114,15,23,72,067,27*78
$GPGSV,4,4,14,26,11,064,32,31,04,030,*7E
$GPGLL,5006.99935,N,01427.63010,E,201540.00,A,A*63
$GPRMC,201541.00,A,5006.99949,N,01427.63023,E,0.098,,100719,,,A*7F
$GPVTG,,T,,M,0.098,N,0.181,K,A*2A
$GPGGA,201541.00,5006.99949,N,01427.63023,E,1,10,0.89,271.7,M,44.3,M,,*5C
$TIME,704
$STROKE,152,705,0x1C,0x22,0xC2,0x04,0x1E,0xE4,0x07,0x01,0x01,4,517150,1
$STROKE,153,708,0x1C,0x22,0xC2,0x04,0x00,0x00,0x00,0x01,0x01,4,0,1
$STROKE,154,709,0x1C,0x22,0xC2,0x04,0x00,0x00,0x00,0x01,0x01,4,0,1
$STROKE,155,710,0x1C,0x22,0xC2,0x04,0x00,0x00,0x00,0x01,0x01,4,0,1
$STROKE,156,710,0x1C,0x22,0xC2,0x04,0x00,0x00,0x00,0x01,0x01,4,0,1
$STROKE,157,711,0x1C,0x22,0xC2,0x04,0x00,0x00,0x00,0x01,0x01,4,0,1
$STROKE,158,711,0x1C,0x22,0xC2,0x04,0x00,0x00,0x00,0x01,0x01,4,0,1
$STROKE,159,712,0x1C,0x22,0xC2,0x04,0x00,0x00,0x00,0x01,0x01,4,0,1
$MPL,68,712,0,98744.50,16.50
$GPGSV,4,1,14,01,01,160,,02,19,317,44,03,41,108,25,04,42,240,29*76
$GPGSV,4,2,14,06,53,282,47,07,20,180,22,09,65,242,32,16,04,090,*78
$GPGSV,4,3,14,17,07,235,,19,14,248,29,22,22,114,19,23,72,067,31*7D
$GPGSV,4,4,14,26,11,064,27,31,04,030,*7A
$GPGLL,5007.00062,N,01427.63146,E,201550.00,A,A*6A
$GPRMC,201551.00,A,5007.00082,N,01427.63162,E,0.168,,100719,,,A*7B
$GPVTG,,T,,M,0.168,N,0.312,K,A*2C
$GPGGA,201551.00,5007.00082,N,01427.63162,E,1,10,0.89,274.8,M,44.3,M,,*5C
$GPGSA,A,3,02,23,26,17,03,06,19,09,07,22,,,1.50,0.89,1.20*06
$GPGSV,4,1,14,01,01,160,,02,19,317,45,03,41,108,21,04,42,240,29*73
$GPGSV,4,2,14,06,53,282,46,07,20,180,20,09,65,242,31,16,04,090,*78
$TIME,714
$STROKE,160,716,0x1C,0x22,0xC2,0x04,0xDB,0xE2,0x07,0x01,0x01,4,516827,1
$STROKE,161,718,0x1C,0x22,0xC2,0x04,0x00,0x00,0x00,0x01,0x01,4,0,1
$STROKE,162,720,0x1C,0x22,0xC2,0x04,0x00,0x00,0x00,0x01,0x01,4,0,1
$STROKE,163,720,0x1C,0x22,0xC2,0x04,0x00,0x00,0x00,0x01,0x01,4,0,1
$STROKE,164,721,0x1C,0x22,0xC2,0x04,0x00,0x00,0x00,0x01,0x01,4,0,1
$STROKE,165,721,0x1C,0x22,0xC2,0x04,0x35,0xE3,0x07,0x01,0x01,4,516917,1
$MPL,69,722,0,98740.75,16.56
$GPGSV,4,3,14,17,07,235,13,19,14,248,32,22,21,114,16,23,72,067,32*7A
$GPGSV,4,4,14,26,11,063,31,31,04,030,*7A
$GPGLL,5007.00129,N,01427.63134,E,201600.00,A,A*67
$GPRMC,201601.00,A,5007.00130,N,01427.63134,E,0.046,,100719,,,A*7B
$GPVTG,,T,,M,0.046,N,0.084,K,A*2D
$GPGGA,201601.00,5007.00130,N,01427.63134,E,1,10,0.89,274.9,M,44.3,M,,*50
$GPGSA,A,3,02,23,26,17,03,06,19,09,07,22,,,1.50,0.89,1.20*06
$GPGSV,4,1,14,01,01,160,,02,19,317,45,03,41,108,25,04,42,240,30*7F
$GPGSV,4,2,14,06,53,282,48,07,20,180,28,09,65,242,35,16,04,090,*7A
$GPGSV,4,3,14,17,07,235,14,19,14,248,32,22,21,114,19,23,72,067,32*72
$GPGSV,4,4,14,26,11,063,31,31,04,030,*7A
$TIME,724
$STROKE,166,726,0x1C,0x22,0xC2,0x04,0x91,0xE2,0x07,0x01,0x01,4,516753,1
$MPL,70,732,0,98744.25,16.63
$GPRMC,201611.00,A,5007.00165,N,01427.63174,E,0.109,,100719,,,A*74
$GPVTG,,T,,M,0.109,N,0.202,K,A*2B
